Station,Site_Name,Agency_Name,Lat,Lon,SRadius,MERRALat,MERRALon,IDXi,IDXj,PS,QV10m,Q500,Q850,T10m,T500,T850,WIND,BCSMASS,DUSMASS25,OCSMASS,SO2SMASS,SO4SMASS,SSSMASS25,NISMASS25,TOTEXTTAU,UTC_DATE,UTC_TIME
384CI1010001,Abidjan,U.S. Department of State Ivory Coast - Abidjan,5.3599517,-4.0082563,13.6,5.25,-4.062,382,564,100425.09,19.28597,3.82924,0.012269078,299.573,268.707,291.573,1.326,2.50238,46.12057,18.8882,2.22441,1.77809,6.6604,0.00647,0.527,20250410,0130
AD1010001,Abu_Dhabi,U.S. Department of State UAE - Abu Dhabi,24.42431,54.433874,5.1,24.5,54.375,459,751,100645.484,14.42803,0.33361,0.00077904155,294.736,265.406,286.736,2.256,0.67863,14.6102,4.77587,16.51529,7.62762,4.34967,0.07103,0.16,20250410,0130
1,Abuja,U.S. Department of State Nigeria - Abuja,9.041648,7.477374,14.0,9.0,7.5,397,601,95177.97,15.80569,2.56732,0.010687222,298.671,268.459,290.671,2.031,2.8219,42.5996,11.05746,0.64451,1.0379,0.92656,0.00457,0.486,20250410,0130
288GH1010001,Accra,U.S. Department of State Ghana - Accra,5.580642,-0.170724,18.1,5.5,-0.312,383,576,100375.0,19.06506,3.07695,0.011228627,299.642,269.748,291.642,2.283,1.05884,24.44727,5.21232,3.1826,0.69432,3.57737,0.00563,0.533,20250410,0130
2,Adana,,36.9914194,35.3308285,1.9,37.0,35.312,509,690,98971.66,6.28739,0.26846,0.0048466856,283.583,248.916,275.583,1.26,0.38867,3.05776,1.38044,14.06962,3.58922,4.4513,0.19131,0.219,20250410,0130
231AA1010001,Addis_Ababa,U.S. Department of State Ethiopia - Addis Ababa,9.058498,38.761641,13.4,9.0,38.75,397,701,73896.7,4.94033,0.80647,--,283.969,267.506,275.969,1.628,0.84354,6.15553,3.99586,0.43863,1.67839,0.2278,0.01573,0.094,20250410,0130
4,Alexandria,,31.2000924,29.9187387,9.5,31.25,30.0,486,673,101781.97,7.4484,0.0802,0.0042985943,289.244,254.95,281.244,7.171,0.09606,1.60812,0.3726,0.47022,2.23953,2.86671,0.01696,0.119,20250410,0130
012ALG010001,Algiers,U.S. Department of State Algeria - Algiers,36.755798,3.039114,5.9,36.75,3.125,508,587,101484.94,9.96868,0.54457,0.0042653,290.255,259.144,282.255,6.634,0.15193,1.78129,1.02057,3.10288,1.85322,3.77007,0.02805,0.163,20250410,0130
398KZ1010001,Almaty,U.S. Department of State Kazakhstan - Almaty,43.252855,76.93118,3.7,43.25,76.875,534,823,94220.73,5.35519,0.0661,0.004545155,285.705,255.616,277.705,1.915,3.05548,14.15331,10.77403,176.95164,10.46694,0.01369,0.00554,0.198,20250410,0130
400JOR010001,Amman,U.S. Department of State Jordan - Amman,31.945021,35.880501,5.7,32.0,35.938,489,692,93639.59,6.71752,1.0019,0.0055308314,283.813,256.493,275.813,5.265,0.10219,1.54267,0.42604,4.90774,1.83497,2.26196,0.24252,0.162,20250410,0130
5,Amsterdam,,52.3675734,4.9041389,14.6,52.25,5.0,570,593,102834.516,5.53002,0.6793,0.0029223936,281.349,255.497,273.349,6.432,0.22939,2.13021,0.88741,0.70625,2.1629,3.37834,0.14462,0.142,20250410,0130
6,Ankara,,39.9333635,32.8597419,8.4,40.0,32.812,521,682,88191.17,2.57712,0.12551,0.002403133,271.112,245.789,263.112,2.724,0.17224,2.96146,0.61162,0.72029,2.36228,0.03873,0.23736,0.185,20250410,0130
450MAD010001,Antananarivo,U.S. Department of State Madagascar- Antananarivo,-18.90848,47.53751,13.5,-19.0,47.5,285,729,86888.58,13.26347,2.64622,0.013309645,289.332,268.086,281.332,1.513,1.0855,0.07828,7.06288,0.92136,0.59005,1.08691,0.06498,0.065,20250410,0130
7,Antwerp,,51.2213404,4.4051485,3.8,51.25,4.375,566,591,102786.516,4.94875,0.93679,0.0022109526,279.17,254.764,271.17,2.389,0.54021,3.33438,1.19118,2.00592,3.27248,2.68895,0.71555,0.21,20250410,0130
8,Apia,,-13.8506958,-171.7513551,17.4,-13.75,-171.875,306,27,100869.58,19.52834,2.61931,0.012539323,302.626,268.772,294.626,5.366,0.00477,0.06306,0.03065,0.04648,0.28488,7.81367,3e-05,0.087,20250410,0130
795ABT010001,Ashgabat,"U.S. Department of State - Ashgabat, Turkmenistan",37.9415,58.3879,10.7,38.0,58.438,513,764,99760.7,6.03704,0.86781,0.0037950708,293.218,260.368,285.218,6.329,0.17595,38.90522,1.31511,0.53559,2.47768,0.02883,0.00161,0.372,20250410,0130
9,Asmara,,15.3228767,38.9250517,16.8,15.25,39.062,422,702,96825.625,11.93306,0.46659,0.006175426,300.516,270.328,292.516,1.415,0.6161,17.80072,3.67515,0.85525,5.21616,3.58882,0.0078,0.236,20250410,0130
600PAR010001,Asuncion,U.S. Department of State Paraguay - Asuncion,-25.293536,-57.60395,7.8,-25.25,-57.5,260,393,100553.16,10.09589,1.33127,0.0077717714,293.11,265.795,285.11,2.248,2.09286,12.68165,20.47649,1.09286,1.41511,0.23799,0.00756,0.119,20250410,0130
11,Athens,,37.9838096,23.7275388,2.7,38.0,23.75,513,653,101099.83,4.24664,0.17577,0.002435496,283.46,247.906,275.46,2.559,0.90225,1.28459,2.98616,6.93544,3.08083,0.79388,0.22288,0.129,20250410,0130
12,Auckland,,-36.8508827,174.7644881,13.1,-36.75,174.688,214,1136,102952.2,6.73058,0.08528,0.0019555422,290.86,258.187,282.86,2.306,0.01216,0.39042,0.14208,0.0852,0.28768,5.14939,0.00026,0.04,20250410,0130
368IRQ010001,Baghdad,U.S. Department of State Iraq - Baghdad,33.3128,44.3615,7.3,33.25,44.375,494,719,99863.59,7.37172,1.4774,0.0059643956,299.336,259.259,291.336,2.147,1.37571,120.53977,2.78313,46.89035,4.13127,0.00342,0.00032,0.603,20250410,0130
031AZE010001,Baku,U.S. Department of State Azerbaijan - Baku,40.386992,49.842946,15.1,40.5,50.0,523,736,101250.36,6.14528,2.01683,0.0062762033,282.266,258.027,274.266,11.705,0.12628,4.45567,0.71273,0.66568,1.65299,0.08618,0.06889,0.587,20250410,0130
466ML1010001,Bamako,U.S. Department of State Mali - Bamako,12.632524,-8.036911,18.1,12.75,-8.125,412,551,96680.72,13.08014,1.3425,0.009139607,303.968,266.651,295.968,2.863,1.01741,34.46714,7.64441,0.39746,0.78241,0.34294,0.00034,0.277,20250410,0130
14,Bandar_Seri_Begawan,,4.9030522,114.939821,12.7,5.0,115.0,381,945,101046.19,17.75412,1.77563,0.013699364,300.672,268.976,292.672,1.834,0.24833,0.61234,2.09412,1.94426,1.35502,1.3444,0.00067,0.072,20250410,0130
TPCD0052T,Bangkok,,13.727622,100.486568,13.3,13.75,100.625,416,899,101006.266,18.57335,4.55598,0.011948247,300.9,268.605,292.9,3.056,1.73401,2.0453,19.6042,4.15761,4.51036,2.21816,0.25455,0.603,20250410,0130
16,Bangui,,4.3946735,18.5581899,17.8,4.5,18.438,379,636,95636.98,16.49572,3.61575,0.012768287,298.033,269.445,290.033,1.324,0.40205,25.73851,4.9695,0.24469,0.48556,0.03948,0.00026,0.186,20250410,0130
070BH2010001,Banja_Luka,U.S. Department of State Bosnia Herzegovina - Banja Luka,44.7725,17.185556,2.5,44.75,17.188,540,632,100088.06,5.66638,0.24363,0.0031910413,281.578,246.982,273.578,2.104,0.59139,0.59756,1.83192,8.22908,2.04648,0.19125,1.15045,0.256,20250410,0130
18,Banjul,,13.454375,-16.5753186,5.3,13.5,-16.562,415,524,100892.27,12.91704,0.90202,0.0059376014,295.76,266.23,287.76,3.984,0.2873,3.27671,1.26006,1.19751,1.05977,5.02095,0.00758,0.404,20250410,0130
19,Barcelona,,41.3873974,2.168568,12.6,41.5,2.188,527,584,97024.26,8.77904,1.51506,0.0059790155,285.419,254.774,277.419,0.954,0.70767,3.30396,1.88786,4.54827,2.88433,0.96629,1.5598,0.27,20250410,0130
156BJ1010001,Beijing,U.S. Department of State China - Beijing,39.953352,116.466258,17.0,40.0,116.562,521,950,99197.234,4.64109,0.02434,0.0024102721,288.687,250.72,280.687,1.379,12.10514,6.25393,27.26866,85.19117,15.18026,0.27801,4.1204,0.326,20250410,0130
20,Beirut,,33.8937913,35.5017767,16.4,34.0,35.625,497,691,86973.59,5.87184,0.05384,0.00554609,277.833,256.077,269.833,5.192,0.08588,1.8137,0.32736,1.57899,2.06143,2.54208,0.12315,0.115,20250410,0130
21,Belfast,,54.597285,-5.93012,10.8,54.5,-5.938,579,558,103100.25,5.43254,0.67671,0.0012235044,282.432,256.304,274.432,1.795,0.63389,2.99499,1.78755,3.82765,2.23701,1.16234,0.25339,0.118,20250410,0130
22,Belgrade,,44.8125449,20.4612299,13.6,44.75,20.312,540,642,100700.555,3.77013,0.34369,0.002621998,279.417,246.75,271.417,2.919,0.77649,1.34038,2.73089,15.05014,2.44806,0.0794,0.65816,0.138,20250410,0130
084BZ1010001,Belmopan,U.S. Department of State Belize - Belmopan,17.256124,-88.773876,1.0,17.25,-88.75,430,293,101649.6,12.36474,0.22836,0.009236314,297.057,268.565,289.057,1.156,0.25609,3.07793,3.09234,0.51349,2.22487,6.16509,0.02054,0.245,20250410,0130
24,Berlin,,52.5200066,13.404954,3.1,52.5,13.438,571,620,101440.91,5.18377,1.06337,0.00229252,278.002,251.976,270.002,2.323,0.44892,3.00804,2.09735,0.64012,3.69461,1.18879,2.29631,0.167,20250410,0130
25,Bern,,46.9479739,7.4474468,7.0,47.0,7.5,549,601,95381.56,4.72508,0.31853,0.00372528,279.32,252.884,271.32,1.881,0.9667,2.17755,2.41944,5.36736,1.69087,0.4054,2.20809,0.123,20250410,0130
417BI1010001,Bishkek,U.S. Department of State Kyrgyzstan - Bishkek,42.827626,74.58384,16.9,42.75,74.688,532,816,90936.625,4.73566,0.06345,0.0043571712,284.959,256.62,276.959,2.429,0.1532,9.97367,0.70962,3.89611,1.37743,0.0177,0.00896,0.202,20250410,0130
BG1010001,Bogota,U.S. Department of State Colombia - Bogota,4.637735,-74.094856,4.5,4.75,-74.062,380,340,73171.45,11.1917,4.79211,--,284.336,268.988,276.336,0.684,0.15621,1.94038,1.36145,0.9252,0.40714,0.20987,0.15546,0.043,20250410,0130
26,Bordeaux,,44.837789,-0.57918,10.4,44.75,-0.625,540,575,101499.84,6.4809,0.18125,0.00405149,284.436,252.199,276.436,4.574,0.51502,1.94391,2.05663,1.23202,0.91166,0.29411,0.50327,0.089,20250410,0130
27,Brasilia,,-15.7975154,-47.8918874,10.0,-15.75,-47.812,298,424,90451.63,14.6789,4.58021,0.012440685,295.237,267.813,287.237,1.597,0.36882,0.70153,4.80136,1.45577,0.47993,0.60286,0.00704,0.058,20250410,0130
28,Bratislava,,48.1485965,17.1077478,12.7,48.25,17.188,554,632,98732.19,4.30328,0.66941,0.0037677775,279.484,249.148,271.484,5.589,0.64719,2.09464,2.09746,11.38432,2.95942,0.15162,2.59864,0.243,20250410,0130
29,Brazzaville,,-4.2633597,15.2428853,7.9,-4.25,15.312,344,626,94704.55,17.16785,3.61658,0.013114527,297.492,268.919,289.492,1.017,0.84843,34.1604,6.99732,1.26745,0.63486,0.54663,0.00351,0.188,20250410,0130
30,Bridgetown,,13.1059816,-59.6131741,14.3,13.0,-59.688,413,386,101598.16,17.24855,3.58522,0.012421785,300.043,266.259,292.043,7.487,0.12383,6.52999,0.9623,0.17093,0.57612,7.67615,0.00012,0.157,20250410,0130
31,Brussels,,50.8476424,4.3571696,10.9,50.75,4.375,564,591,102606.75,4.7427,0.84076,0.0013713693,278.095,254.764,270.095,3.332,0.56856,2.29704,1.26634,2.36957,3.79832,1.58536,1.56674,0.226,20250410,0130
32,Bucharest,,44.4267674,26.1025384,14.3,44.5,26.25,539,661,100762.66,4.08059,0.36523,0.0020492494,274.883,245.723,266.883,0.561,0.3988,0.80631,1.42276,1.66917,2.83311,0.0905,2.42345,0.19,20250410,0130
33,Budapest,,47.497912,19.040235,1.7,47.5,19.062,551,638,99065.555,3.84783,0.63838,0.0034383433,279.857,246.057,271.857,5.51,0.71191,1.75874,2.45805,5.80239,1.72046,0.16011,1.68089,0.228,20250410,0130
032BAA010002,Buenos_Aires,U.S. Department of State Argentina - Buenos Aires,-34.6036844,-58.3815591,12.6,-34.5,-58.438,223,390,101693.81,11.54571,0.14186,0.008568787,292.657,263.625,284.657,7.482,0.02942,0.64859,0.47793,0.10547,0.41112,9.55853,0.00693,0.092,20250410,0130
34,Bujumbura,,-3.361378,29.3598782,12.5,-3.25,29.375,348,671,82264.85,13.12242,2.63034,--,289.964,269.14,281.964,1.073,4.26262,11.06108,15.90494,1.9373,1.02895,0.10193,0.06871,0.137,20250410,0130
35,Busan,,35.1795543,129.0756416,7.9,35.25,129.062,502,990,99683.36,7.64864,0.28875,0.006049508,289.396,252.363,281.396,2.157,2.99215,7.77175,8.75573,40.51682,15.45552,0.80197,0.9613,0.989,20250410,0130
818EGY010001,Cairo,U.S. Department of State Egypt - Cairo,30.04147,31.23289,5.1,30.0,31.25,481,677,100413.97,7.11509,0.12043,0.004126933,287.09,258.172,279.09,3.348,0.46111,5.4953,1.12657,15.6033,2.49964,1.75349,1.3205,0.135,20250410,0130
CC0090222,Calgary,,51.0814,-114.1403,5.0,51.0,-114.062,565,212,90191.12,3.83246,0.27714,0.0026468523,283.28,244.397,275.28,2.541,0.27157,0.19717,0.53146,7.72728,0.38782,0.00905,0.0,0.063,20250410,0130
38,Canberra,,-35.2809368,149.1300092,7.0,-35.25,149.062,220,1054,93987.16,6.08979,2.03362,0.0056952816,294.361,258.285,286.361,3.746,0.21238,0.47523,2.5192,2.17164,1.00134,0.91608,0.0003,0.078,20250410,0130
39,Cape_Town,,-33.9248685,18.4240553,8.4,-34.0,18.438,225,636,99822.83,10.84788,1.07846,0.008433105,290.691,263.046,282.691,2.174,0.90529,0.71296,3.3501,4.94785,2.17387,2.14756,0.03876,0.039,20250410,0130
40,Caracas,,10.4805937,-66.9036063,3.8,10.5,-66.875,403,363,100884.16,18.31356,4.00782,0.011155998,298.882,268.994,290.882,5.107,0.10414,7.15773,1.30066,0.47338,0.63796,8.01013,0.00209,0.175,20250410,0130
41,Cartagena,,10.3932277,-75.4832311,19.5,10.5,-75.625,403,335,100815.375,19.28066,1.48227,0.011842617,300.093,269.388,292.093,7.091,0.19419,14.31041,1.38371,1.43324,3.43849,14.61327,0.0017,0.273,20250410,0130
42,Casablanca,,33.5731104,-7.5898434,11.6,33.5,-7.5,495,553,99490.01,7.25242,1.17608,0.0052625337,293.499,256.336,285.499,1.087,0.30937,6.88218,1.16392,13.5669,5.43815,1.67955,0.1665,0.622,20250410,0130
43,CATANO,,18.4465,66.1356,13.5,18.5,66.25,435,789,100925.484,17.86448,0.11097,0.003263002,300.941,266.226,292.941,5.482,0.57575,3.43554,3.35682,0.32775,3.69361,3.39973,0.00165,0.37,20250410,0130
44,Ceiba__Vega_Baja,,18.4425245,-66.3562141,12.9,18.5,-66.25,435,365,101706.734,16.90484,0.26398,0.0125899445,300.316,267.882,292.316,6.562,0.09905,5.22405,0.79918,0.25005,0.63626,6.50148,0.00097,0.111,20250410,0130
356DS1010002,Chennai,U.S. Department of State India - Chennai,13.08784,80.278475,10.2,13.0,80.312,413,834,100836.12,19.4778,1.41695,0.010407059,301.17,268.667,293.17,4.815,3.5315,1.33051,10.20131,7.05925,2.81377,5.98971,0.07024,0.428,20250410,0130
45,Chiang_Mai,,18.7883439,98.9853008,9.2,18.75,99.062,436,894,91976.69,11.8238,2.72681,0.009584875,298.799,267.401,290.799,0.415,3.67823,2.05834,41.81335,1.76818,10.75578,0.05956,0.14933,0.873,20250410,0130
498MLD010001,Chisinau,U.S. Department of State Moldova - Chisinau,47.021561,28.81938,8.7,47.0,28.75,549,669,99779.46,2.73128,0.51281,0.001962605,272.699,244.129,264.699,3.669,0.66701,0.62992,2.07771,2.68549,0.48023,0.06746,3.21952,0.18,20250410,0130
46,Ciudad_Juarez,,31.6903638,-106.4245478,14.6,31.75,-106.562,488,236,87466.445,3.04107,0.33859,0.0016929606,299.938,261.847,291.938,1.723,0.35625,2.65283,1.8139,0.70249,0.6983,0.16689,5e-05,0.066,20250410,0130
144CMB010001,Colombo,U.S. Department of State Sri Lanka - Colombo,6.909445,79.875341,17.3,7.0,80.0,389,833,98584.57,18.41068,1.9559,0.012659442,297.408,270.12,289.408,0.768,2.04989,2.49277,12.8116,7.53618,7.41009,6.53959,0.20561,0.705,20250410,0130
324GN1010001,Conakry,U.S. Department of State Guinea - Conakry,9.5951,-13.6364,19.6,9.75,-13.438,399,533,99911.12,16.69811,3.10421,0.012830736,297.805,268.005,289.805,0.673,1.79282,16.25701,15.11812,0.73292,3.05183,3.02109,0.02866,0.552,20250410,0130
47,Copenhagen,,55.6760968,12.5683372,9.3,55.75,12.5,584,617,101873.11,3.52591,0.9761,0.0010864502,276.522,254.067,268.522,3.14,0.1278,1.87274,0.41411,0.76785,0.20562,0.69588,0.24721,0.066,20250410,0130
48,Cotonou,,6.3702928,2.3912362,18.0,6.25,2.5,386,585,100749.0,19.38549,1.89678,0.013488835,300.376,269.317,292.376,2.414,0.9115,35.41941,3.85354,1.02346,0.78163,4.31588,0.00105,0.369,20250410,0130
49,CULEBRA,,29.4874353,-98.6681378,8.0,29.5,-98.75,479,261,97681.68,7.22688,0.69852,0.0042526997,295.428,261.584,287.428,3.628,0.96306,2.72214,4.09903,3.36403,2.08453,0.39151,0.00028,0.112,20250410,0130
531CUR010001,Curacao,U.S. Department of State Curacao,12.16957,-68.99002,11.9,12.25,-69.062,410,356,101334.25,18.91376,2.31804,0.010259096,300.391,269.293,292.391,9.582,0.06846,5.64707,0.59413,0.26898,0.62636,10.90402,0.00038,0.14,20250410,0130
686SEN010001,Dakar,U.S. Department of State Senegal - Dakar,14.744791,-17.526484,5.1,14.75,-17.5,420,521,101072.4,13.00859,0.75885,0.0046525253,292.992,265.814,284.992,5.743,0.03497,0.71012,0.36876,1.44853,1.2835,7.31287,0.00171,0.268,20250410,0130
51,Dar_es_Salaam,,-6.792354,39.2083284,16.8,-6.75,39.062,334,702,101059.69,19.08782,1.65777,0.011218322,301.293,268.44,293.293,4.131,0.15853,0.10385,0.88311,0.17989,0.21404,3.71175,0.00016,0.061,20250410,0130
682DRN010000,Dhahran,U.S. Department of State Saudi Arabia - Dhahran,26.2361248,50.0393017,4.2,26.25,50.0,466,737,100667.21,10.74149,0.22971,0.0044080764,299.53,266.104,291.53,3.528,0.31197,29.4196,2.3186,98.34506,20.49085,0.50497,0.05278,0.293,20250410,0130
DK1010001,Dhaka,U.S. Department of State Bangladesh - Dhaka,23.796374,90.424614,12.2,23.75,90.312,456,866,100792.78,12.35515,0.42146,0.011821017,300.295,265.078,292.295,3.233,2.56112,1.30038,18.72149,5.40036,2.79797,1.44247,0.3174,0.442,20250410,0130
52,Dili,,-8.5568557,125.5603143,9.5,-8.5,125.625,327,979,100934.28,17.42195,4.18763,0.012421358,301.629,269.299,293.629,0.563,0.13526,1.82347,1.41571,0.42776,0.93039,1.93767,0.00045,0.059,20250410,0130
53,Djibouti_City,,11.5720765,43.1456475,8.3,11.5,43.125,407,715,101038.086,18.20817,0.5784,0.0019129533,299.686,268.417,291.686,4.548,0.46029,6.63309,2.81471,0.02017,3.6012,2.47248,0.01116,0.268,20250410,0130
634QA1010001,Doha,U.S. Department of State Qatar - Doha,25.3337,51.22953,5.1,25.25,51.562,462,741,100607.21,10.39817,0.23645,0.0013896972,298.287,266.415,290.287,2.914,0.27581,33.43593,1.60192,24.1594,20.54906,1.09069,0.10121,0.242,20250410,0130
55,Douala,,4.0510564,9.7678687,10.6,4.0,9.688,377,608,99821.03,19.21096,3.61518,0.014614122,298.147,268.423,290.147,0.506,1.04346,63.18218,7.92542,1.31696,1.01061,3.79822,0.00487,0.781,20250410,0130
784DB1010001,Dubai,U.S. Department of State UAE - Dubai,25.258481,55.309165,6.5,25.25,55.312,462,754,100496.25,11.88177,0.28818,0.004954934,296.358,265.085,288.358,0.763,2.07577,51.28431,4.62376,53.35752,6.57366,3.99819,0.32568,0.262,20250410,0130
56,Dublin,,53.3498053,-6.2603097,11.1,53.25,-6.25,574,557,103294.75,5.67901,0.63152,0.0020228792,283.094,256.544,275.094,1.893,0.35633,2.56445,1.54332,1.65889,2.09744,1.45333,0.11235,0.125,20250410,0130
57,Durban,,-29.8586804,31.0218404,14.6,-29.75,30.938,242,676,100651.72,12.85883,0.5166,0.008751223,295.579,265.355,287.579,2.465,1.4392,1.23955,6.31324,6.46832,2.87497,0.80026,0.02018,0.086,20250410,0130
762DUS010001,Dushanbe,U.S. Department of State Tajikistan - Dushanbe,38.557671,68.775917,7.4,38.5,68.75,515,797,79742.3,7.04852,0.39276,--,280.147,259.1,272.147,0.975,0.85207,23.15518,5.45448,0.50696,8.04478,0.06765,1.03391,0.404,20250410,0130
58,Dusseldorf,,51.2277411,6.7734556,7.5,51.25,6.875,566,599,101529.89,4.68306,0.96063,0.0025828856,278.224,254.188,270.224,2.857,0.44471,3.38895,0.8774,7.03178,4.31658,2.12142,1.68962,0.237,20250410,0130
59,Edinburgh,,55.953252,-3.188267,6.5,56.0,-3.125,585,567,102564.0,4.95892,0.60267,0.0022904933,279.417,256.62,271.417,2.231,0.81817,4.04053,3.17149,6.10652,1.83429,0.52661,0.65555,0.119,20250410,0130
60,Florence,,43.7695604,11.2558136,2.2,43.75,11.25,536,613,95322.94,6.54988,0.1606,0.0052984315,280.535,250.154,272.535,1.278,0.8957,2.17766,2.91867,1.21249,2.83542,1.91852,2.78912,0.185,20250410,0130
61,Frankfurt_am_Main,,50.1109221,8.6821267,13.3,50.0,8.75,561,605,99744.41,5.00444,0.90155,0.002116236,278.447,253.596,270.447,1.924,0.61984,3.22005,2.29369,2.64844,2.11363,0.42724,4.12455,0.198,20250410,0130
62,Freetown,,8.4656765,-13.2317225,12.3,8.5,-13.125,395,535,100829.45,18.17393,2.89484,0.012799792,297.674,268.525,289.674,1.338,0.30918,10.14057,1.18079,0.1426,2.35858,5.01757,0.00761,1.015,20250410,0130
63,Fukuoka,,33.5901838,130.4016888,13.0,33.5,130.312,495,994,99601.01,10.43338,1.51989,0.005952292,293.054,254.963,285.054,5.65,1.08857,7.55704,5.3925,3.3325,7.61229,1.86329,0.17522,0.795,20250410,0130
64,Gaborone,,-24.6282079,25.9231471,13.6,-24.75,25.938,262,660,90502.766,12.38562,0.14422,0.009318199,290.988,267.8,282.988,2.173,0.30574,1.98354,2.92724,1.20345,0.49854,0.04307,0.09018,0.055,20250410,0130
65,Gaziantep,,37.065953,37.37811,13.1,37.0,37.5,509,697,93423.66,5.90211,0.08339,0.0042058164,281.791,253.18,273.791,2.381,0.42187,0.7813,1.69694,9.87867,2.74157,2.8906,0.37684,0.111,20250410,0130
66,Geneva,,46.2043907,6.1431577,9.7,46.25,6.25,546,597,94635.42,5.23278,0.12302,0.003236449,281.669,252.371,273.669,6.75,0.76792,2.01569,2.1002,2.65134,1.51931,0.39106,1.69075,0.098,20250410,0130
67,Georgetown,,6.8012793,-58.1551255,6.6,6.75,-58.125,388,391,101395.34,18.58543,3.59587,0.012640927,300.781,268.563,292.781,7.033,0.27433,17.79365,2.12639,0.12324,0.61598,13.20519,0.00023,0.344,20250410,0130
68,Guadalajara,,20.6596988,-103.3496092,13.6,20.75,-103.438,444,246,83065.22,2.90421,0.10532,--,299.418,264.804,291.418,0.899,0.1683,2.26741,1.94114,0.66322,0.78155,0.27449,0.00015,0.081,20250410,0130
156GZ1010001,Guangzhou,U.S. Department of State China - Guangzhou,23.116785,113.318088,19.6,23.25,113.125,453,940,100398.555,14.23273,1.59146,0.012118619,298.266,263.742,290.266,2.312,2.39827,2.64961,8.38193,53.62986,7.48869,1.15656,0.75749,1.001,20250410,0130
320GT1010001,Guatemala_City,U.S. Department of State Guatemala - Guatemala City,14.989397,-90.522408,18.0,14.75,-90.625,421,287,86249.75,10.79682,0.32727,0.010653013,287.633,269.914,279.633,1.306,0.33021,1.26474,2.22908,0.08194,1.32736,2.28802,0.18449,0.139,20250410,0130
69,Guayaquil,,-2.1894128,-79.8890662,14.0,-2.25,-80.0,352,321,101114.52,19.19875,5.49559,0.01487156,298.45,269.213,290.45,1.695,0.55152,5.68361,4.20799,16.19668,7.21338,8.07821,0.03249,0.564,20250410,0130
30113,Halifax,,44.647175,-63.573689,15.7,44.75,-63.438,540,374,101138.8,2.93405,0.03897,0.0019014981,271.272,244.553,263.272,2.019,0.18283,0.786,0.98943,4.39357,1.47112,0.13165,0.01168,0.104,20250410,0130
71,Hamburg,,53.5510846,9.9936819,5.7,53.5,10.0,575,609,101980.86,4.91057,0.76852,0.0032570665,277.571,254.481,269.571,2.232,0.28286,2.39956,0.95754,2.27443,3.61558,2.94336,0.97171,0.171,20250410,0130
72,Hamilton,,32.2945837,-64.7858887,10.5,32.25,-64.688,490,370,102126.414,14.10051,0.65619,0.008993365,294.026,260.095,286.026,3.029,0.15092,3.83796,1.03165,0.29645,3.6595,6.94496,0.00156,0.245,20250410,0130
HN1010001,Hanoi,U.S. Department of State Vietnam - Hanoi,21.021939,105.818806,11.2,21.0,105.938,445,916,100609.2,15.81847,3.75027,0.00991098,295.824,266.446,287.824,1.794,2.93569,3.14144,19.76376,7.82893,9.68256,1.16497,1.01247,0.973,20250410,0130
73,Harare,,-17.8216288,31.0492259,14.3,-17.75,30.938,290,676,87276.25,14.03805,0.9439,0.012720015,294.189,269.735,286.189,1.254,0.8944,0.63752,4.49224,0.98104,1.96891,0.45308,0.00128,0.099,20250410,0130
74,Havana,,23.1135925,-82.3665956,18.6,23.0,-82.5,453,313,101805.38,11.87116,0.01986,0.0032659892,296.648,263.564,288.648,7.17,0.22554,1.98736,1.40907,1.76573,3.07433,2.19834,0.01251,0.151,20250410,0130
75,Helsinki,,60.1698557,24.9383791,9.5,60.25,25.0,602,657,100396.97,1.73103,0.02817,0.00081553485,269.012,241.48,261.012,4.605,0.0851,0.98067,0.37209,0.19934,0.36053,0.70522,0.08555,0.073,20250410,0130
76,Hermosillo,,29.0729673,-110.9559192,8.3,29.0,-110.938,477,222,96944.59,1.54105,0.11394,0.0013353575,306.508,262.867,298.508,4.421,0.09873,2.41922,0.82701,0.627,0.37134,0.19312,6e-05,0.079,20250410,0130
704HC1010001,Ho_Chi_Minh_City,U.S. Department of State Vietnam - Ho Chi Minh,10.782773,106.700035,10.9,10.75,106.562,404,918,100669.06,17.55915,3.13757,0.012264797,301.133,268.377,293.133,1.975,1.05133,1.83329,7.41737,4.80195,3.7369,2.02364,0.10917,0.201,20250410,0130
77,Hong_Kong,,22.3193039,114.1693611,13.4,22.25,114.062,450,942,100902.555,14.18171,2.61761,0.011472981,295.699,263.841,287.699,1.284,1.33598,2.58842,5.64981,28.1349,8.09259,1.26752,0.6629,0.76,20250410,0130
356DS1010005,Hyderabad,U.S. Department of State India - Hyderabad,17.38405,78.45636,13.8,17.5,78.438,431,828,94827.39,12.88929,1.79383,0.008646486,297.202,265.271,289.202,3.282,4.38127,3.8452,17.57257,16.86337,7.75124,0.66804,1.00131,0.806,20250410,0130
5.86E+11,Islamabad,U.S. Department of State Pakistan - Islamabad,33.725614,73.11602,10.2,33.75,73.125,496,811,85351.43,8.68437,2.11342,0.00780968,288.467,261.591,280.467,1.815,3.14497,6.57107,21.36845,7.06497,12.68849,0.01147,1.21873,0.36,20250410,0130
78,Istanbul,,41.0082376,28.9783589,7.1,41.0,29.062,525,670,101502.39,3.26054,0.11594,0.00237265,278.717,244.5,270.717,4.225,2.45578,3.51553,9.03965,41.74687,5.15721,0.15283,0.61753,0.167,20250410,0130
JK1010001,Jakarta,U.S. Department of State Indonesia - Jakarta,-6.236704,106.793244,5.6,-6.25,106.875,336,919,101058.97,17.66971,3.6104,0.012644434,301.153,268.928,293.153,2.22,3.4193,1.28241,21.85359,23.58829,11.27995,1.92512,0.40787,0.33,20250410,0130
682JDA010001,Jeddah,U.S. Department of State Saudi Arabia - Jeddah,21.543486,39.172989,13.5,21.5,39.062,447,702,99018.92,10.37593,0.6982,0.0043051015,301.433,264.802,293.433,2.568,2.11123,40.50196,13.82773,116.29017,41.88785,9.95623,1.34857,0.547,20250410,0130
80,Jerusalem,,31.768319,35.21371,9.6,31.75,35.312,488,690,99933.59,7.0389,0.51076,0.0056300135,288.567,256.311,280.567,1.703,0.11788,0.70411,0.50653,2.70676,1.66944,2.64031,0.04312,0.152,20250410,0130
81,Johannesburg,,-26.2041028,28.0473051,9.3,-26.25,28.125,256,667,84454.766,7.68401,0.34103,--,285.221,266.824,277.221,2.844,1.32664,1.71251,5.47019,13.23788,0.9883,0.08911,0.18715,0.038,20250410,0130
728OD1010001,Juba,U.S. Department of State South Sudan - Juba,4.859363,31.57125,12.2,4.75,31.562,380,678,95362.29,15.32667,1.43782,0.012164458,299.39,268.755,291.39,2.006,0.34269,5.4298,3.56356,0.12532,1.38021,0.22967,0.00091,0.171,20250410,0130
800KP1010001,Kampala,U.S. Department of State Uganda - Kampala,0.300225,32.591554,14.2,0.25,32.5,362,681,88603.1,13.91127,3.46246,0.013237667,294.668,269.182,286.668,1.492,1.61695,3.57736,6.3074,0.78704,1.08699,0.37288,0.00423,0.141,20250410,0130
82,Kaohsiung,,22.6272784,120.3014353,13.7,22.75,120.312,452,962,93880.94,13.30174,3.03471,0.012057569,295.146,263.762,287.146,1.223,1.09685,3.57454,7.52782,1.65894,8.01161,0.52868,0.10055,0.703,20250410,0130
586PK2010001,Karachi,U.S. Department of State Pakistan - Karachi,24.8415,67.0091,17.7,24.75,66.875,460,791,99702.28,17.74232,1.93269,0.001998656,296.742,262.804,288.742,4.315,1.28415,5.4131,7.26195,18.53551,5.80673,7.54469,0.23488,0.46,20250410,0130
KM1010002,Kathmandu,U.S. Department of State Nepal - Kathmandu,27.712464,85.315703,3.8,27.75,85.312,472,850,71295.555,7.91568,3.18189,--,280.455,262.743,272.455,0.203,4.19557,3.12168,41.05502,0.73089,18.60212,0.15106,2.26419,0.633,20250410,0130
736SU1730002,Khartoum,U.S. Department of State Sudan - Khartoum,15.5006544,32.5598994,6.4,15.5,32.5,423,681,95832.86,2.58041,1.46716,0.002364931,301.377,268.615,293.377,3.904,0.13924,28.68027,1.26088,0.13117,0.31614,0.05667,2e-05,0.103,20250410,0130
646KYI010001,Kigali,,-1.936231,30.077952,9.3,-2.0,30.0,353,673,84204.85,12.53782,2.43436,--,291.161,269.068,283.161,0.799,2.44726,6.38991,10.46252,1.43708,0.80112,0.11034,0.05325,0.102,20250410,0130
86,Kingston,,18.0178743,-76.8099041,7.2,18.0,-76.875,433,331,99939.2,16.28229,1.67399,0.009300889,298.527,268.035,290.527,1.83,0.11546,1.38703,1.52588,0.72604,0.76156,7.34193,0.00245,0.119,20250410,0130
87,Kinshasa,,-4.4419311,15.2662931,8.2,-4.5,15.312,343,626,95631.97,17.1604,3.83476,0.013300688,297.673,268.748,289.673,1.053,0.73682,30.46356,6.27742,1.01529,0.55731,0.56662,0.00165,0.178,20250410,0130
88,Kirkuk,,35.4666329,44.3798895,3.7,35.5,44.375,503,719,93516.984,7.63657,1.68224,0.0058771963,294.457,258.864,286.457,1.319,0.04519,46.35778,0.27383,2.44358,0.24657,0.03121,0.00031,0.675,20250410,0130
356DS1010003,Kolkata,U.S. Department of State India - Kolkata,22.56263,88.36304,11.1,22.5,88.438,451,860,100815.016,16.30429,0.78149,0.009701478,299.347,264.84,291.347,2.726,3.50358,1.16807,20.57373,5.75074,2.26059,1.81061,0.54053,0.232,20250410,0130
89,Krakow,,50.0646501,19.9449799,8.2,50.0,20.0,561,641,98390.15,4.81065,0.47836,0.0034519907,278.287,243.258,270.287,7.608,0.61731,2.11889,1.47049,7.68232,2.50393,0.5368,3.02101,0.252,20250410,0130
458MY1010001,Kuala_Lumpur,U.S. Department of State Malaysia - Kuala Lumpur,3.15675,101.72145,18.5,3.25,101.562,374,903,99266.03,18.27827,4.32234,0.012388876,298.632,268.16,290.632,0.728,0.94874,1.04453,8.40699,11.63135,7.80017,0.59415,0.48512,0.192,20250410,0130
414KC1010001,Kuwait_City,U.S. Department of State Kuwait - Kuwait City,29.292317,48.047679,19.9,29.5,48.125,478,731,100548.875,9.26813,0.95203,0.0053029615,299.173,262.558,291.173,3.146,0.82546,28.06175,7.49324,62.66063,8.78234,0.21079,0.00572,0.387,20250410,0130
90,Kyiv,,50.4501,30.5234,9.1,50.5,30.625,563,675,99116.33,2.85235,0.35381,0.0026352978,273.46,241.029,265.46,5.684,1.30434,1.30415,4.31499,5.49972,1.31636,0.06291,2.4411,0.175,20250410,0130
91,La_Paz,,-16.489689,-68.1192936,1.3,-16.5,-68.125,295,359,73736.11,11.78324,2.15077,--,285.129,269.322,277.129,0.318,0.0521,1.11025,0.60141,0.00269,0.2718,0.01354,0.02022,0.035,20250410,0130
566NI2010001,Lagos,U.S. Department of State Nigeria - Lagos,6.440483,3.406815,7.0,6.5,3.438,387,588,100553.46,19.34188,2.61654,0.013403282,299.153,268.732,291.153,1.136,2.58937,33.009,9.28245,5.55269,0.86546,3.24332,0.01054,0.393,20250410,0130
586PK3010003,Lahore,U.S. Department of State Pakistan - Lahore,31.560078,74.33589,2.7,31.5,74.375,487,815,97871.43,8.41734,2.73903,0.0073366575,299.686,261.885,291.686,2.355,7.4014,7.25501,41.65685,34.86216,11.2785,0.00181,0.06276,0.688,20250410,0130
92,Leipzig,,51.3396955,12.3730747,13.3,51.25,12.5,566,617,100918.41,4.95059,1.06254,0.0026158155,278.476,252.142,270.476,3.366,0.42436,3.89389,1.69353,1.88158,5.04066,1.96459,1.92887,0.256,20250410,0130
266GAB010001,Libreville,U.S. Department of State Gabon - Libreville,0.4161976,9.4672676,13.9,0.5,9.375,363,607,100464.3,19.16639,3.78481,0.014279617,299.142,268.519,291.142,0.782,0.47247,28.5621,4.78667,0.5457,0.69572,2.14024,0.00135,0.48,20250410,0130
93,Lilongwe,,-13.9626121,33.7741195,4.9,-14.0,33.75,305,685,90141.38,13.38361,0.56536,0.012268497,294.417,268.742,286.417,0.299,0.28151,0.35169,1.81902,0.16209,0.29205,1.15045,0.0007,0.036,20250410,0130
604LM1010001,Lima,U.S. Department of State Peru - Lima,-12.0463731,-77.042754,16.6,-12.0,-77.188,313,330,85390.97,11.53322,4.84493,0.011175857,292.377,268.713,284.377,0.743,0.79405,1.7276,1.20665,10.39154,5.71833,0.34486,0.00064,0.333,20250410,0130
94,Lisbon,,38.7222524,-9.1393366,7.3,38.75,-9.062,516,548,100561.2,9.12447,1.71597,0.005945755,291.517,256.2,283.517,2.246,0.42815,2.63629,3.72077,1.58994,0.9988,0.59296,0.05111,0.239,20250410,0130
95,Ljubljana,,46.0569465,14.5057515,11.9,46.0,14.375,545,623,93862.2,4.87388,0.36724,0.0030887271,278.833,249.257,270.833,1.04,2.04412,1.44236,5.44898,5.13769,1.91505,0.99612,3.954,0.164,20250410,0130
768TOG010001,Lome,U.S. Department of State Togo - Lome,6.185167,1.214166,14.1,6.25,1.25,386,581,100561.0,19.29013,2.38936,0.013637608,299.689,269.07,291.689,1.894,1.31987,32.1275,6.24915,0.86157,0.76935,4.78882,0.00652,0.421,20250410,0130
97,London,,51.5072178,-0.1275862,8.9,51.5,0.0,567,577,102435.74,4.67122,0.76224,0.0015946961,276.298,255.368,268.298,2.807,0.5349,1.57658,1.51727,3.28895,2.08996,1.32819,1.16633,0.173,20250410,0130
98,Luanda,,-8.8146556,13.2301756,13.6,-8.75,13.125,326,619,100532.75,16.58279,4.07403,0.013803131,297.648,268.388,289.648,2.384,0.58174,8.11015,2.72342,1.97546,0.68383,3.71829,0.00293,0.295,20250410,0130
99,Lusaka,,-15.3875259,28.3228165,17.5,-15.5,28.438,299,668,89027.83,13.13297,0.71671,0.01098653,294.742,268.915,286.742,1.445,0.15838,0.9375,2.25408,2.98743,0.83369,0.66738,0.00023,0.037,20250410,0130
100,Luxembourg_City,,49.611621,6.1319346,15.1,49.5,6.25,559,597,98817.25,5.21409,0.80739,0.0025896882,278.244,253.607,270.244,1.956,0.60084,3.3466,1.58193,7.08803,2.17124,0.43849,3.32207,0.165,20250410,0130
101,Lyon,,45.764043,4.835659,11.6,45.75,4.688,544,592,99083.42,6.18073,0.34653,0.00258652,280.65,250.674,272.65,4.961,0.92708,2.02297,3.32256,2.17476,2.22508,0.36423,1.37788,0.121,20250410,0130
102,Madrid,,40.4167754,-3.7037902,10.0,40.5,-3.75,523,565,92136.14,6.24325,0.49555,0.0037801636,285.429,257.609,277.429,2.785,0.29097,2.47106,1.42079,1.36416,0.78063,0.50677,0.06607,0.084,20250410,0130
103,Malabo,,3.7549606,8.7821344,3.6,3.75,8.75,376,605,99293.03,18.96491,3.70006,0.0139331985,300.186,268.358,292.186,3.306,0.61964,34.86003,3.39614,0.83402,0.54722,2.5504,0.00105,0.494,20250410,0130
104,Managua,,12.1149926,-86.2361744,12.9,12.0,-86.25,409,301,99722.14,14.05448,2.05595,0.010093775,302.006,267.628,294.006,4.954,0.16058,1.55101,2.36683,0.56734,0.47385,1.56359,0.00022,0.062,20250410,0130
048MNA010001,Manama,U.S. Department of State Bahrain - Manama,26.204697,50.570833,4.8,26.25,50.625,466,739,100623.21,10.68809,0.25308,0.0026571304,299.171,266.021,291.171,2.502,0.20192,32.97027,1.31452,17.58193,8.12172,0.8333,0.05289,0.249,20250410,0130
608PH1010001,Manila,U.S. Department of State Philippines - Manila,14.57711,120.9778,12.2,14.5,120.938,419,964,96846.43,13.42945,1.351,0.008547399,301.774,268.538,293.774,1.127,0.20493,0.98193,1.99473,1.75124,1.11442,1.11289,0.00158,0.09,20250410,0130
508MAP010001,Maputo,U.S. Department of State Mozambique - Maputo,-25.90382,32.62835,8.1,-26.0,32.5,257,681,101184.83,16.72613,0.31521,0.011586519,298.501,267.478,290.501,7.244,0.19983,0.86716,1.52474,2.78411,4.06492,7.60676,0.00176,0.28,20250410,0130
107,Marseille,,43.296482,5.36978,6.9,43.25,5.312,534,594,97734.08,7.36613,0.14695,0.005088383,282.444,252.603,274.444,0.633,0.96454,2.07024,3.48619,19.77585,3.61993,1.63938,0.63687,0.187,20250410,0130
108,Maseru,,-29.3150767,27.4869229,7.3,-29.25,27.5,244,665,83867.086,6.20723,0.4565,--,283.838,265.726,275.838,0.664,2.11016,0.53123,9.3379,1.43259,0.58672,0.35097,0.13986,0.035,20250410,0130
109,Matamoros,,25.8690294,-97.5027376,13.2,25.75,-97.5,464,265,101891.8,10.29331,0.39325,0.0021584884,294.898,262.025,286.898,5.788,0.15869,2.27475,1.61405,0.18101,1.26605,2.63009,0.00077,0.138,20250410,0130
110,Mbabane,,-26.3054482,31.1366715,12.9,-26.25,31.25,256,677,96392.13,15.00037,0.39034,0.006586843,294.842,266.926,286.842,3.77,0.60303,1.33917,3.61782,8.2437,13.92532,3.95315,0.03621,0.333,20250410,0130
111,Medan,,3.5951956,98.6722227,13.7,3.5,98.75,375,893,101038.2,18.29172,5.14374,0.012774106,301.024,268.364,293.024,3.507,1.1486,0.76028,9.80158,9.02295,2.95012,1.27779,0.0445,0.144,20250410,0130
112,Melbourne,,-37.8136276,144.9630576,7.8,-37.75,145.0,210,1041,97687.805,5.0779,1.27855,0.00433312,293.713,259.056,285.713,2.025,0.27846,0.44125,4.24082,0.91849,0.48047,0.33997,0.00018,0.054,20250410,0130
113,Merida,,20.9673702,-89.5925857,10.5,21.0,-89.688,445,290,101973.85,8.74031,0.0014,0.00038694136,294.485,264.023,286.485,2.38,0.10794,2.54745,0.60639,0.17612,1.21888,1.70312,0.00091,0.091,20250410,0130
800090154,Mexico_City,,19.4116,-99.1522,10.5,19.5,-99.062,439,260,75829.734,5.67799,0.27664,--,287.979,266.642,279.979,5.785,0.13731,2.13053,1.35794,0.83996,0.84738,0.02218,0.00794,0.103,20250410,0130
115,Milan,,45.4642035,9.189982,10.7,45.5,9.062,543,606,96477.56,5.51091,0.14073,0.005151977,282.621,251.469,274.621,0.869,3.58786,1.61548,9.14606,9.77659,3.42982,0.11516,5.7624,0.276,20250410,0130
116,Minsk,,53.9006011,27.558972,11.7,54.0,27.5,577,665,97746.484,2.51303,0.04425,0.0011299268,270.347,236.607,262.347,5.851,0.10768,0.82442,0.4895,0.26497,0.64132,1.37517,0.69027,0.092,20250410,0130
117,Mogadishu,,2.0469343,45.3181623,5.3,2.0,45.312,369,722,100324.59,17.6562,1.60162,0.011881454,300.065,268.859,292.065,1.936,0.34727,2.53388,2.23334,0.05011,2.04907,2.13929,0.0004,0.175,20250410,0130
118,Monrovia,,6.3156068,-10.8073698,16.1,6.25,-10.938,386,542,100605.734,18.78165,1.14432,0.014444432,299.04,268.739,291.04,0.02,1.99341,24.76285,11.07829,1.4739,0.76475,2.30868,0.01381,0.585,20250410,0130
119,Monterrey,,25.6866142,-100.3161126,7.1,25.75,-100.312,464,256,95352.195,4.58139,0.3592,0.0032494394,298.37,261.526,290.37,2.255,0.16953,2.60478,2.03542,0.58671,1.09697,0.20382,0.0001,0.098,20250410,0130
120,Montevideo,,-34.9011127,-56.1645314,13.5,-35.0,-56.25,221,397,101595.016,10.09427,0.61821,0.0071348576,291.52,259.189,283.52,5.317,0.11244,0.19743,0.98205,1.41615,0.22264,5.53303,0.00151,0.047,20250410,0130
CC0050109,Montreal,,45.502648,-73.663913,10.1,45.5,-73.438,543,341,102127.78,2.3328,0.14376,0.0011439725,269.946,237.871,261.946,3.932,1.02696,1.008,3.63582,15.92488,1.7556,0.06468,0.5691,0.099,20250410,0130
122,Moscow,,55.755826,37.6172999,7.4,55.75,37.5,584,697,98050.44,2.14784,0.3513,0.0017910072,266.048,240.305,258.048,3.044,2.1315,1.04921,7.33842,157.67125,9.8697,0.11789,3.97438,0.227,20250410,0130
123,Mostar,,43.3437748,17.8077578,10.4,43.25,17.812,534,634,89295.375,4.05828,0.50787,0.0034072353,275.02,247.189,267.02,0.783,0.22277,0.97109,0.79636,1.83628,1.39711,0.60467,1.17888,0.115,20250410,0130
356DS1010004,Mumbai,U.S. Department of State India - Mumbai,19.07283,72.88261,10.9,19.0,72.812,437,810,100398.875,18.74338,0.08253,0.004483759,298.618,265.454,290.618,2.025,9.9758,5.22907,20.8855,71.2993,10.66352,4.01188,0.99163,0.69,20250410,0130
124,Munchen,,48.1351253,11.5819805,12.9,48.25,11.562,554,614,96768.445,4.03295,0.8838,0.0032173323,277.216,251.532,269.216,4.064,0.6074,1.84003,1.7058,4.88677,1.82565,0.27464,1.96878,0.157,20250410,0130
125,Muscat,,23.5880307,58.3828717,11.3,23.5,58.438,455,764,100741.23,17.78996,0.57573,0.0036197763,297.014,264.519,289.014,0.926,0.08099,4.42509,0.56227,0.64458,2.41733,1.28625,0.01171,0.241,20250410,0130
126,Nagoya,,35.1814506,136.9065571,8.1,35.25,136.875,502,1015,96595.375,7.70888,1.26141,0.006420993,287.719,253.761,279.719,1.834,1.08602,5.599,5.45557,3.74931,6.65399,1.8644,0.47811,0.753,20250410,0130
127,Naha,,26.2125758,127.6790208,13.9,26.25,127.812,466,986,101144.33,10.75428,3.63044,0.005098394,292.565,263.983,284.565,3.532,0.24128,4.45874,1.68518,1.33742,1.62962,1.5087,0.0064,0.489,20250410,0130
404KE1010001,Nairobi,U.S. Department of State Kenya - Nairobi,-1.23437,36.81732,7.5,-1.25,36.875,356,695,85936.016,13.88308,2.77097,0.013768766,291.711,268.631,283.711,0.604,2.64146,2.80348,11.61886,1.82964,2.28149,1.22977,0.09935,0.182,20250410,0130
129,Naples,,40.8517983,14.26812,14.5,40.75,14.375,524,623,97148.41,4.41152,0.45948,0.0027729468,280.782,249.881,272.782,0.875,1.64428,1.46951,5.1634,3.30917,1.61293,1.04773,0.50741,0.125,20250410,0130
130,Nassau,,25.0443312,-77.3503609,15.9,25.0,-77.5,461,329,101587.016,11.20557,0.0432,0.0073022195,296.931,263.153,288.931,6.972,0.2246,1.82717,1.04336,0.86704,2.43941,2.13277,0.02902,0.153,20250410,0130
131,Nay_Pyi_Taw,,19.7633057,96.0785104,14.8,19.75,95.938,440,884,96969.016,11.21133,4.44592,0.0073294425,298.713,266.791,290.713,1.718,4.73473,0.54737,75.53807,5.10144,4.63052,0.01222,0.36338,0.571,20250410,0130
148CHD010001,N_Djamena,U.S. Department of State Chad - N'Djamena,12.1348457,15.0557415,14.2,12.25,15.0,410,625,97312.05,4.69776,1.93376,0.0034542545,305.014,269.313,297.014,2.021,0.22814,50.11778,1.53826,0.05238,0.33129,0.03635,2e-05,0.401,20250410,0130
356DS1010001,New_Delhi,U.S. Department of State India - New Delhi,28.63576,77.22445,12.8,28.5,77.188,476,824,97997.14,10.25457,2.20544,0.007598795,299.488,263.46,291.488,3.754,6.39387,2.89438,45.08053,11.11916,13.47187,0.04664,0.94772,1.164,20250410,0130
360810120,New_York,,40.7269,-73.8933,6.3,40.75,-74.062,524,341,102300.64,3.4162,1.01979,0.0015418866,276.633,251.466,268.633,3.476,0.86889,0.32419,1.63502,5.10884,0.86922,0.66757,0.3916,0.116,20250410,0130
133,Niamey,,13.5115963,2.1253854,6.8,13.5,2.188,415,584,97886.0,5.496,0.80102,0.004917345,306.768,269.917,298.768,2.423,0.77148,33.13236,3.45531,0.15046,0.42632,0.29577,0.00012,0.332,20250410,0130
134,Nicosia,,35.1855659,33.3822764,8.7,35.25,33.438,502,684,100845.34,7.27323,0.03369,0.004010287,288.659,248.444,280.659,13.765,0.30777,10.71839,1.20989,1.62962,8.26886,4.6971,0.02976,0.302,20250410,0130
800260006,Nogales,,31.291294,-110.951508,5.7,31.25,-110.938,486,222,85212.59,1.68315,0.13736,0.00130484,298.664,263.054,290.664,3.564,0.06837,2.55337,0.55962,0.07834,0.26356,0.16538,5e-05,0.059,20250410,0130
136,Nouakchott,,18.0735299,-15.9582372,8.5,18.0,-15.938,433,526,100988.28,10.23044,0.46054,0.005193135,295.073,265.215,287.073,6.504,0.05729,71.94467,0.30126,0.24468,0.33229,3.18052,0.00132,0.216,20250410,0130
137,Nuevo_Laredo,,27.4779362,-99.549573,13.8,27.5,-99.688,471,258,99592.195,7.03042,0.53515,0.004035267,297.573,261.824,289.573,2.064,0.2656,2.76576,1.94447,0.34387,1.21339,0.25884,0.00012,0.104,20250410,0130
398KAZ010001,Nur_Sultan,U.S. Department of State Kazakhstan - Nur-Sultan,51.125287,71.467217,11.8,51.25,71.562,566,806,98060.23,5.59387,0.10929,0.0048189946,281.293,253.918,273.293,4.72,1.18413,3.80677,11.33291,7.08245,2.19321,0.01011,0.1836,0.127,20250410,0130
138,Nuuk,,64.1814099,-51.6941381,9.9,64.25,-51.562,618,412,97447.51,2.6006,0.60695,0.0014196329,268.907,246.892,260.907,2.025,0.12335,1.87741,0.43917,0.02423,1.92483,4.30947,0.02334,0.147,20250410,0130
139,Osaka,,34.6937249,135.5022535,12.8,34.75,135.625,500,1011,98747.375,7.39226,1.45024,0.0070923795,285.258,254.3,277.258,2.257,1.66162,6.3848,6.55424,20.47673,5.08966,0.79938,1.37488,0.849,20250410,0130
140,Oslo,,59.9138688,10.7522454,11.9,60.0,10.625,601,611,98117.53,2.71714,1.42527,0.0021882118,272.616,254.122,264.616,1.41,1.63084,2.5682,9.86148,0.49165,0.67993,0.92132,0.23308,0.122,20250410,0130
60104,Ottawa,,45.434333,-75.67599,10.4,45.5,-75.625,543,335,99613.78,2.30056,0.13375,0.0016580923,269.568,237.711,261.568,2.314,0.73728,1.01463,3.03167,4.61633,1.36234,0.03491,0.34302,0.083,20250410,0130
854BFA010001,Ouagadougou,U.S. Department of State Burkina Faso - Ouagadougou,12.304907,-1.497184,14.3,12.25,-1.562,410,572,97488.2,10.79962,0.42696,0.0064605307,304.334,269.03,296.334,2.886,1.23313,23.01848,3.93292,0.86457,0.29347,0.02416,9e-05,0.249,20250410,0130
143,Panama_City,,8.9823792,-79.5198696,16.0,9.0,-79.375,397,323,99207.51,18.08409,0.22001,0.008733274,298.74,269.89,290.74,1.877,0.12133,4.98825,1.12459,0.25598,1.86822,7.67779,0.00112,0.158,20250410,0130
144,Paramaribo,,5.8520355,-55.2038278,16.5,5.75,-55.312,384,400,101364.805,18.2366,1.17425,0.013399668,299.84,269.247,291.84,4.464,0.33497,18.60721,2.91792,0.1725,0.78203,13.93909,0.0002,0.42,20250410,0130
145,Paris,,48.856614,2.3522219,16.1,48.75,2.5,556,585,101502.84,5.61908,0.59601,0.0023178873,279.257,254.596,271.257,5.0,0.97876,2.42467,3.61542,5.90717,2.117,0.79679,2.14573,0.158,20250410,0130
146,Perth,,-31.9523123,115.861309,8.9,-32.0,115.938,233,948,99121.51,7.46967,0.38921,0.005687479,293.421,265.029,285.421,4.427,0.07257,0.83107,0.72691,0.38125,0.46557,1.68719,0.00084,0.039,20250410,0130
586PK4010001,Peshawar,U.S. Department of State Pakistan - Peshawar,34.005852,71.53775,3.9,34.0,71.562,497,806,96636.73,10.5782,0.88408,0.0070518767,295.127,261.426,287.127,4.301,2.39557,6.15298,15.14191,9.34793,6.31027,0.00792,0.44885,0.314,20250410,0130
147,Phnom_Penh,,11.5563738,104.9282099,10.0,11.5,105.0,407,913,100977.06,17.46235,4.35923,0.013655255,301.071,267.95,293.071,2.666,1.4797,1.46994,10.3132,3.95794,2.74919,2.07275,0.08462,0.292,20250410,0130
148,Podgorica,,42.4304196,19.2593642,12.2,42.5,19.375,531,639,86812.266,3.69172,0.61093,0.0037584354,272.913,247.604,264.913,1.323,0.24175,1.15403,1.02533,2.89748,2.40342,0.73984,0.95284,0.122,20250410,0130
149,Ponta_Delgada,,37.7394207,-25.6686725,4.0,37.75,-25.625,512,495,101831.13,9.35542,0.49227,0.0062493067,288.689,255.364,280.689,9.457,0.07487,1.69306,0.347,0.36202,1.88551,11.56908,0.00073,0.155,20250410,0130
150,Port_Louis,,-20.1608912,57.5012222,9.9,-20.25,57.5,280,761,101317.05,18.26888,3.4662,0.009189022,300.911,265.843,292.911,3.838,0.00641,0.03222,0.02919,0.14568,0.29207,3.80753,5e-05,0.068,20250410,0130
151,Port_Moresby,,-9.4438004,147.1802671,6.3,-9.5,147.188,323,1048,92327.92,16.1503,5.04763,0.01371079,298.737,268.676,290.737,1.647,0.0105,0.05654,0.18504,0.06519,0.05429,0.22473,3e-05,0.02,20250410,0130
152,Port_of_Spain,,10.6603196,-61.5085625,11.6,10.75,-61.562,404,380,101484.375,17.8824,3.53942,0.010393898,300.36,267.55,292.36,7.396,0.10323,6.36307,0.82155,0.23078,0.52958,7.77047,0.00027,0.16,20250410,0130
153,Port_au_Prince,,18.594395,-72.3074326,16.4,18.5,-72.188,435,346,94903.8,12.48691,0.68277,0.011944747,298.327,269.023,290.327,0.881,0.3099,2.71829,1.75697,1.24983,1.50015,2.54594,0.00335,0.228,20250410,0130
154,Porto_Alegre,,-30.0368176,-51.2089887,5.7,-30.0,-51.25,241,413,100110.36,12.88267,0.14295,0.0094759315,292.391,264.376,284.391,1.741,1.80021,3.89477,14.27838,22.35177,2.19541,3.26692,0.12517,0.131,20250410,0130
155,Prague,,50.0755381,14.4378005,9.5,50.0,14.375,561,623,99250.445,5.1826,0.81419,0.0036872553,280.416,250.526,272.416,5.186,0.61149,2.5176,1.99775,4.13007,1.80109,0.35604,3.87508,0.264,20250410,0130
156,Praia,,14.93305,-23.5133267,11.0,15.0,-23.438,421,502,101305.08,13.775,0.42982,0.00828514,294.551,265.904,286.551,4.258,0.0184,0.91541,0.17031,0.29824,0.67832,8.47054,0.00039,0.213,20250410,0130
157,Pretoria,,-25.7478676,28.2292712,10.4,-25.75,28.125,258,667,87892.766,8.30008,0.23017,0.006872978,288.176,267.853,280.176,3.195,0.79459,1.82529,3.59299,7.59174,0.74728,0.06797,0.04146,0.041,20250410,0130
688PI1010001,Pristina,U.S. Department of State Kosovo - Pristina,42.655959,21.139953,11.9,42.75,21.25,532,645,95138.266,3.48382,0.48075,0.0032548953,278.271,247.054,270.271,2.029,0.66626,0.92393,3.62649,8.1107,2.16332,0.44971,1.2548,0.203,20250410,0130
158,Quebec,,46.8615,-71.2572,7.8,46.75,-71.25,548,349,99725.11,2.14389,0.14507,0.0011287737,266.97,237.673,258.97,2.762,0.53995,1.28579,2.78494,8.86105,0.81776,0.06889,0.48145,0.082,20250410,0130
159,Quito,,-0.1806532,-78.4678382,8.4,-0.25,-78.438,360,326,68453.945,9.62396,4.50809,--,281.87,269.665,273.87,1.287,0.04941,0.74826,0.52289,0.26832,0.27421,0.08135,0.03811,0.029,20250410,0130
160,Rabat,,33.9715904,-6.8498129,3.9,34.0,-6.875,497,555,100306.01,10.97366,1.15558,0.0053035417,291.366,256.139,283.366,5.554,0.2091,6.83125,1.153,5.43238,4.58686,3.3603,0.26563,0.647,20250410,0130
104MMR010001,Rangoon,U.S. Department of State Burma - Rangoon,16.8256,96.1445,13.0,16.75,96.25,428,885,100898.89,14.41247,4.21596,0.011226712,301.838,267.318,293.838,2.504,1.81725,1.02881,18.51616,2.02171,3.20048,1.16011,0.02773,0.427,20250410,0130
161,Recife,,-8.0577401,-34.8829629,14.4,-8.0,-35.0,329,465,101351.69,17.67764,3.00132,0.012683459,301.03,268.475,293.03,4.902,0.02056,0.61651,0.29154,0.20876,0.16928,3.63082,0.00023,0.051,20250410,0130
162,Rennes,,48.117266,-1.6777926,15.6,48.0,-1.562,553,572,101368.234,5.40016,0.13493,0.0016450847,279.272,254.01,271.272,5.002,0.47532,2.38806,1.65383,3.05489,3.58341,1.23012,1.7423,0.16,20250410,0130
163,Reykjavik,,64.146582,-21.9426354,12.0,64.25,-21.875,618,507,98897.14,5.78824,0.68639,0.005556442,279.081,250.263,271.081,2.271,0.08429,1.87079,0.35174,1.27878,1.18504,2.02929,0.00235,0.154,20250410,0130
164,Riga,,56.9496487,24.1051865,6.2,57.0,24.062,589,654,100856.234,2.5098,0.02252,0.0012386071,273.224,238.318,265.224,9.144,0.04033,0.2447,0.16678,0.08845,0.23793,2.8304,0.02659,0.071,20250410,0130
165,Rio_de_Janeiro,,-22.9068467,-43.1728965,11.5,-23.0,-43.125,269,439,100304.625,15.64635,1.44129,0.010264925,296.499,265.543,288.499,0.957,0.53092,0.43247,4.55391,2.60597,0.59983,3.0492,0.02604,0.117,20250410,0130
682SAU010001,Riyadh,U.S. Department of State Saudi Arabia - Riyadh,24.7135517,46.6752957,12.1,24.75,46.562,460,726,93590.516,5.39674,0.29878,0.00498442,299.099,266.611,291.099,4.643,0.26383,28.72247,1.80689,71.50216,6.01933,0.16653,0.00273,0.344,20250410,0130
166,Rome,,41.9027835,12.4963655,10.8,42.0,12.5,529,617,95787.19,6.01845,0.57974,0.0037835198,281.01,250.152,273.01,1.129,0.46278,1.01896,1.39799,0.61314,2.39158,1.11817,1.02834,0.168,20250410,0130
167,Saint_George_s,,12.0560975,-61.7487996,15.1,12.0,-61.875,409,379,101378.414,17.5944,3.16102,0.010522599,300.063,267.403,292.063,6.916,0.13807,6.37758,1.09867,0.30178,0.50257,6.42186,0.00012,0.126,20250410,0130
168,Saint_Petersburg,,59.9310584,30.3609096,8.1,60.0,30.312,601,674,99939.58,2.87874,0.04014,0.0016877291,271.03,234.744,263.03,3.488,0.015,1.25339,0.17957,0.08095,0.77987,3.45944,0.3678,0.119,20250410,0130
188CRI010001,San_Jose,U.S. Department of State Costa Rica - San Jose,9.949488,-84.142878,8.6,10.0,-84.062,401,308,96916.016,15.87539,1.57601,0.0103313755,296.065,269.1,288.065,1.215,0.27924,12.07976,3.14096,0.13745,4.24959,16.90979,0.00453,0.292,20250410,0130
169,San_Salvador,,13.6929403,-89.2181911,18.0,13.75,-89.062,416,292,95581.52,11.19591,2.07584,0.009203058,297.445,268.979,289.445,3.673,0.27474,2.05492,2.29416,0.07953,1.27276,1.98114,0.00139,0.102,20250410,0130
170,Santiago,,-33.4488897,-70.6692655,7.0,-33.5,-70.625,227,351,72119.016,3.94757,0.37055,--,281.623,260.17,273.623,0.927,1.45305,0.50393,9.43063,25.47453,9.13478,0.04593,0.04038,0.074,20250410,0130
171,Santo_Domingo,,18.4860575,-69.9312117,7.4,18.5,-70.0,435,353,100539.91,15.74878,0.1262,0.010293654,298.504,268.495,290.504,1.02,0.36104,3.03793,1.97249,2.57699,0.86737,4.04255,0.00544,0.104,20250410,0130
076BR1010001,Sao_Paulo,U.S. Department of State Brazil - Sao Paulo,-23.629158,-46.696558,10.0,-23.5,-46.562,266,428,92743.375,14.34063,1.70517,0.012307516,292.055,265.156,284.055,0.474,1.96193,0.43698,14.73195,14.93889,5.02202,2.58013,0.41928,0.259,20250410,0130
173,Sapporo,,43.0617713,141.3544507,10.9,43.0,141.25,533,1029,100229.44,5.6461,0.3865,0.002594731,284.827,246.875,276.827,4.433,0.6079,4.28186,3.05525,3.48361,3.48506,0.25074,0.16071,0.395,20250410,0130
070BIH010001,Sarajevo,U.S. Department of State Bosnia Herzegovina - Sarajevo,43.856665,18.398205,12.0,43.75,18.438,536,636,90420.266,3.65548,0.35749,0.0036935855,276.073,247.241,268.073,1.54,0.44844,0.78659,1.06171,10.3517,2.17969,0.19983,0.86371,0.167,20250410,0130
174,Seoul,,37.566535,126.9779692,11.7,37.5,126.875,511,983,98341.27,4.33085,0.30067,0.0037122013,286.05,251.215,278.05,1.102,1.31224,4.73936,4.37957,7.88715,4.71575,0.34626,0.63403,0.47,20250410,0130
156SH1010001,Shanghai,U.S. Department of State China - Shanghai,31.210683,121.448226,8.7,31.25,121.562,486,966,100806.984,9.10308,0.06578,0.0033524917,294.461,258.355,286.461,1.641,3.03261,2.91729,10.16186,19.15036,13.09499,0.23444,0.26825,0.513,20250410,0130
156SY1010001,Shenyang,U.S. Department of State China - Shenyang,41.78351,123.424434,6.1,41.75,123.438,528,972,99012.8,5.16045,0.37352,0.0020847772,284.877,249.361,276.877,6.305,3.57393,7.65404,10.75251,33.52607,11.38107,0.24069,2.18663,0.234,20250410,0130
702NEA000004,Singapore_City,,1.35735,103.699997,17.6,1.25,103.75,366,909,100761.414,18.10529,3.69823,0.012934047,300.357,268.476,292.357,1.13,0.9826,1.15624,6.17755,85.57625,10.87077,1.66683,0.23856,0.228,20250410,0130
176,Skopje,,41.9981294,21.4254355,11.3,42.0,21.562,529,646,93871.19,2.68197,0.52505,0.0026113202,277.629,246.87,269.629,0.167,0.30447,1.00528,1.09303,2.73794,2.20333,0.47628,0.449,0.159,20250410,0130
177,Sofia,,42.6977082,23.3218675,11.1,42.75,23.438,532,652,94518.19,3.49975,0.14823,0.002764385,274.683,247.295,266.683,2.226,1.00023,0.98573,3.66417,8.42592,3.12283,0.68683,2.32483,0.182,20250410,0130
178,Stockholm,,59.3293235,18.0685808,9.4,59.25,18.125,598,635,101618.81,2.56663,0.70562,0.0012330173,271.951,248.828,263.951,3.29,0.12044,1.79956,0.51848,0.82887,0.80547,1.29906,0.15381,0.112,20250410,0130
179,Strasbourg,,48.5734053,7.7521113,9.3,48.5,7.812,555,602,99264.41,5.0073,0.8311,0.0035639135,279.468,253.03,271.468,2.403,0.7831,2.50132,2.11361,7.68704,1.65979,0.30856,3.47335,0.161,20250410,0130
180,Surabaya,,-7.2574719,112.7520883,6.7,-7.25,112.812,332,938,100402.08,17.86628,3.91572,0.011876414,301.47,269.039,293.47,1.071,1.23448,19.61065,8.27061,3.86894,4.45574,2.42811,0.01397,0.231,20250410,0130
181,Suva,,-18.1405049,178.4232507,12.3,-18.25,178.438,288,1148,101069.73,18.80171,2.15423,0.011624038,302.061,268.029,294.061,4.698,0.00541,0.13438,0.04174,0.03866,0.29517,8.51855,0.00011,0.09,20250410,0130
182,Sydney,,-33.8688197,151.2092955,13.7,-33.75,151.25,226,1061,102185.43,10.74279,0.70588,0.0061932825,295.12,258.188,287.12,4.29,0.14285,0.42232,0.65518,9.52406,3.13804,2.58264,0.00718,0.11,20250410,0130
183,Taipei,,25.0329636,121.5654268,3.7,25.0,121.562,461,966,100888.61,14.4208,3.82461,0.011310411,293.955,264.639,285.955,6.457,4.53064,12.31823,35.80864,2.43201,46.21278,3.65205,0.84573,1.342,20250410,0130
184,Tallinn,,59.4369608,24.7535747,7.9,59.5,24.688,599,656,101103.25,2.17593,0.02518,0.00052116637,272.697,240.606,264.697,12.741,0.17204,0.91996,0.58717,0.58599,0.41655,1.57799,0.01805,0.068,20250410,0130
860UZB010001,Tashkent,U.S. Department of State Uzbekistan - Tashkent,41.3672,69.2725,12.5,41.25,69.375,526,799,90777.73,6.53344,0.15099,0.0053542047,286.252,256.015,278.252,1.884,0.12066,10.35204,0.69345,3.48986,2.14978,0.01014,0.95133,0.215,20250410,0130
185,Tbilisi,,41.7151377,44.827096,12.2,41.75,44.688,528,720,88454.97,4.92532,0.04641,0.00502772,276.48,254.179,268.48,1.56,0.24645,31.68534,0.88603,0.22448,2.59338,0.05344,0.53783,0.814,20250410,0130
186,Tegucigalpa,,14.065049,-87.1715002,7.4,14.0,-87.188,417,298,90697.52,12.37465,0.19257,0.01181994,292.193,269.621,284.193,1.335,0.1988,2.14041,1.91763,0.08624,1.16544,2.86881,0.0055,0.134,20250410,0130
187,Tel_Aviv,,32.0852999,34.7817676,13.0,32.0,34.688,489,688,99739.23,7.09993,0.07771,0.005540192,287.251,256.4,279.251,3.249,0.13763,0.81574,0.53695,2.57291,1.96248,2.64524,0.07435,0.131,20250410,0130
188,The_Hague,,52.0704978,4.3006999,9.3,52.0,4.375,569,591,102898.516,5.43179,0.86622,0.0028728025,280.544,255.232,272.544,4.13,0.4911,2.73593,1.22756,2.45885,2.95962,3.44747,0.19169,0.174,20250410,0130
189,Thessaloniki,,40.6400629,22.9444191,16.5,40.75,22.812,524,650,97941.83,3.04501,0.43553,0.0024102237,278.905,247.554,270.905,1.602,0.4425,1.28641,1.52006,6.2515,3.25909,0.33822,0.38614,0.139,20250410,0130
484MEX010001,Tijuana,U.S. Department of State Mexico - Tijuana,32.523366,-116.952495,14.1,32.5,-117.188,491,203,91019.81,5.81534,0.07644,0.0035890494,296.5,262.716,288.5,1.714,0.24026,2.34863,0.75344,1.17177,0.61318,0.60725,0.00058,0.086,20250410,0130
191,Tirana,,41.3275459,19.8186982,13.9,41.25,19.688,526,640,93521.766,3.29833,0.49387,0.002207284,276.596,248.244,268.596,0.717,0.87726,1.2759,3.49188,4.40724,2.55622,0.14867,0.74639,0.125,20250410,0130
192,Tokyo,,35.6761919,139.6503106,8.9,35.75,139.688,504,1024,100950.19,7.55251,1.15552,0.0058803856,289.887,253.525,281.887,4.172,0.89595,6.57729,3.47557,14.10991,3.30321,1.01258,0.6697,0.471,20250410,0130
193,Toronto,,43.645451,-79.3891,10.8,43.75,-79.375,536,323,99497.59,3.06658,0.24053,0.0019996995,273.88,248.755,265.88,0.654,1.92576,2.30746,6.56156,10.1179,3.57177,0.13549,1.31158,0.235,20250410,0130
194,Toulouse,,43.604652,1.444209,15.0,43.5,1.562,535,582,99576.26,8.09811,0.10934,0.0051378747,283.793,252.533,275.793,2.225,0.52077,3.90423,2.34988,0.54285,2.71335,1.45377,1.18509,0.133,20250410,0130
195,Tripoli,,32.8872094,13.1913383,14.0,33.0,13.125,493,619,101956.875,9.1417,0.19033,0.0047532194,289.972,256.998,281.972,6.208,0.35635,24.5342,0.8716,3.09042,2.08966,1.81336,0.02593,0.141,20250410,0130
196,Tunis,,36.8064948,10.1815316,13.2,36.75,10.312,508,610,101690.12,9.61198,0.15936,0.0034080166,289.09,256.246,281.09,6.191,0.18467,3.10421,0.68625,3.30088,2.78293,3.9406,0.12104,0.235,20250410,0130
496UB1010001,Ulaanbaatar,U.S. Department of State Mongolia - Ulaanbaatar,47.928385,106.92947,12.8,48.0,106.875,553,919,80097.14,2.50474,0.71455,--,278.095,248.415,270.095,3.348,0.16318,2.4243,0.64008,10.45499,0.96409,0.01942,0.00014,0.083,20250410,0130
197,Valletta,,35.8989085,14.5145528,16.9,36.0,14.375,505,623,102097.19,7.83498,0.24912,0.0043362537,288.881,254.07,280.881,4.982,0.1476,5.43759,0.70956,0.60556,2.50178,2.69302,0.01204,0.262,20250410,0130
198,Vancouver,,49.368,-123.277,3.7,49.25,-123.125,558,183,93355.47,4.02495,0.97325,0.0034496502,275.136,250.222,267.136,1.27,0.10685,0.62794,0.49366,0.09317,0.73603,0.70956,0.28105,0.26,20250410,0130
199,Vatican_City,,41.902916,12.453389,11.5,42.0,12.5,529,617,95787.19,6.01845,0.57974,0.0037835198,281.01,250.152,273.01,1.129,0.46278,1.01896,1.39799,0.61314,2.39158,1.11817,1.02834,0.168,20250410,0130
200,Vienna,,48.2081743,16.3738189,10.3,48.25,16.25,554,629,99168.19,4.08703,0.79214,0.004025746,280.005,248.744,272.005,6.793,0.41936,2.14921,1.24571,13.74173,4.72565,0.15776,1.90652,0.325,20250410,0130
418LAO010001,Vientiane,U.S. Department of State Laos - Vientiane,17.896122,102.64,14.3,18.0,102.5,433,905,97228.58,15.97917,4.60814,0.012703791,299.11,267.209,291.11,0.393,1.95242,1.91254,23.3575,6.87986,6.92936,0.29001,0.23707,0.765,20250410,0130
201,Vilnius,,54.6871555,25.2796514,7.3,54.75,25.312,580,658,98994.41,2.43155,0.02835,0.0013329124,269.506,236.79,261.506,3.054,0.14304,0.86006,0.56741,0.19871,0.49766,1.73429,0.75146,0.079,20250410,0130
202,Vladivostok,,43.1332484,131.9112975,13.3,43.25,131.875,534,999,98824.6,5.12838,0.28433,0.0030839348,282.762,247.729,274.762,3.733,1.30074,3.84539,6.56528,2.34651,4.36075,0.15163,0.26764,0.19,20250410,0130
203,Warsaw,,52.2296756,21.0122287,5.6,52.25,20.938,570,644,100387.58,2.14714,0.01449,0.00062497973,272.456,244.146,264.456,6.353,0.29296,1.53159,2.18308,1.18882,0.5209,2.10406,0.84981,0.088,20250410,0130
204,Washington,,38.921848,-77.013176,8.6,47.75,-120.625,517,331,101856.29,3.76333,0.9084,0.0019265516,278.986,252.976,270.986,3.082,0.58291,1.50899,1.38171,12.49683,3.05087,0.94042,0.09235,0.176,20250410,0130
205,Wellington,,-41.2923814,174.7787463,9.0,-41.25,174.688,196,1136,100057.92,7.36387,0.19579,0.0028831963,288.936,258.095,280.936,3.993,0.00977,0.26274,0.09994,0.0998,0.21011,3.03303,0.00025,0.053,20250410,0130
206,Windhoek,,-22.5608807,17.0657549,14.2,-22.5,17.188,271,632,82609.55,6.42547,0.20001,--,290.598,267.886,282.598,1.904,0.13033,3.15424,1.18822,1.96655,0.39857,0.31548,6e-05,0.04,20250410,0130
70119,Winnipeg,,49.9489,-97.3964,12.2,50.0,-97.188,561,265,98577.78,3.80785,0.88359,0.0040117665,273.198,250.117,265.198,1.256,0.25194,0.92735,0.99138,0.80218,1.93338,0.05966,1.46133,0.294,20250410,0130
208,Wuhan,,30.5927599,114.30525,12.3,30.5,114.375,483,943,100592.83,10.91215,1.75475,0.006192089,296.172,256.687,288.172,2.7,12.72332,5.73199,27.80718,324.19675,36.31599,0.17214,3.00143,0.657,20250410,0130
209,Yaounde,,3.8480325,11.5020752,12.8,3.75,11.562,376,614,93474.44,17.64479,3.71079,0.014436868,295.318,268.866,287.318,0.501,0.69287,44.99753,4.81538,5e-05,0.80049,0.20581,0.02267,0.522,20250410,0130
210,Yekaterinburg,,56.8430993,60.6454086,10.4,56.75,60.625,588,771,97919.31,3.92007,1.09888,0.0027692094,275.868,252.518,267.868,1.232,0.45089,1.87606,2.19858,72.83499,6.16497,0.0379,0.90555,0.422,20250410,0130
051YER010001,Yerevan,U.S. Department of State Armenia - Yerevan,40.16515,44.48171,13.8,40.25,44.375,522,719,78379.984,6.05094,0.49285,--,277.732,255.323,269.732,2.869,0.13152,89.03,0.39362,5.82861,2.81373,0.06402,0.18207,0.565,20250410,0130
212,Yokohama,,35.4436739,139.6379639,7.7,35.5,139.688,503,1024,101062.19,7.60973,1.13208,0.005964309,290.473,253.758,282.473,4.728,0.75679,7.29943,2.64611,12.4801,3.25591,1.26361,0.28453,0.437,20250410,0130
213,Zagreb,,45.8150108,15.9819189,8.0,45.75,15.938,544,628,99472.06,5.44322,0.31003,0.003632831,281.617,248.41,273.617,2.084,0.8506,1.10597,2.42854,10.29545,2.54488,0.34178,3.03128,0.214,20250410,0130
214,Erbil,U.S. Consulate General Erbil,36.22663,43.9905,0.0,36.22,43.99,506,718,90020.984,8.29842,2.04357,0.004569232,289.289,258.576,281.289,1.478,0.14052,43.68023,0.68765,4.69185,2.86136,0.05577,0.02134,0.74,20250410,0130
384CI1010001,Abidjan,U.S. Department of State Ivory Coast - Abidjan,5.3599517,-4.0082563,13.6,5.25,-4.062,382,564,100415.125,19.02189,3.93308,0.011950413,299.246,268.213,291.246,1.027,2.82812,44.35528,20.5531,3.1092,1.63433,5.44926,0.01626,0.627,20250410,0430
AD1010001,Abu_Dhabi,U.S. Department of State UAE - Abu Dhabi,24.42431,54.433874,5.1,24.5,54.375,459,751,100759.45,13.91329,0.25514,0.000838551,296.723,265.36,288.723,3.202,0.63644,13.27511,4.67758,11.30345,5.99302,2.89958,0.09175,0.138,20250410,0430
1,Abuja,U.S. Department of State Nigeria - Abuja,9.041648,7.477374,14.0,9.0,7.5,397,601,95217.875,16.48295,2.1189,0.010769772,297.45,268.954,289.45,1.021,2.87305,40.41948,10.85835,0.74939,0.98188,0.97369,0.01633,0.47,20250410,0430
288GH1010001,Accra,U.S. Department of State Ghana - Accra,5.580642,-0.170724,18.1,5.5,-0.312,383,576,100376.34,18.76431,3.26374,0.012155695,298.951,268.675,290.951,1.795,1.38882,28.08827,6.62863,3.52121,0.79872,3.83268,0.0093,0.478,20250410,0430
2,Adana,,36.9914194,35.3308285,1.9,37.0,35.312,509,690,99105.734,6.76626,0.45623,0.0038974425,284.115,246.369,276.115,1.117,0.52538,1.36112,1.86507,20.7708,4.56199,4.3898,0.506,0.278,20250410,0430
231AA1010001,Addis_Ababa,U.S. Department of State Ethiopia - Addis Ababa,9.058498,38.761641,13.4,9.0,38.75,397,701,74022.28,5.26337,0.77648,--,284.183,268.21,276.183,1.471,0.60914,6.42654,3.00945,0.32399,1.57324,0.19743,0.01241,0.076,20250410,0430
4,Alexandria,,31.2000924,29.9187387,9.5,31.25,30.0,486,673,101837.2,7.32599,0.08349,0.00434186,289.104,253.538,281.104,6.775,0.08605,0.33547,0.33457,0.48386,2.0341,2.38968,0.01556,0.103,20250410,0430
012ALG010001,Algiers,U.S. Department of State Algeria - Algiers,36.755798,3.039114,5.9,36.75,3.125,508,587,101582.484,10.08353,0.54611,0.004534623,290.07,259.148,282.07,6.897,0.19073,2.11462,1.09879,3.22823,2.37831,4.07542,0.06449,0.194,20250410,0430
398KZ1010001,Almaty,U.S. Department of State Kazakhstan - Almaty,43.252855,76.93118,3.7,43.25,76.875,534,823,94224.41,5.67111,0.07484,0.004831084,291.04,254.675,283.04,1.997,0.27008,11.79012,1.21805,10.2801,2.77735,0.01292,0.00414,0.187,20250410,0430
400JOR010001,Amman,U.S. Department of State Jordan - Amman,31.945021,35.880501,5.7,32.0,35.938,489,692,93683.45,6.43117,0.07425,0.0059000533,284.205,257.094,276.205,5.315,0.10784,1.90446,0.45204,3.88364,2.40663,2.05641,0.10228,0.144,20250410,0430
5,Amsterdam,,52.3675734,4.9041389,14.6,52.25,5.0,570,593,102816.22,5.63925,0.16782,0.0028798906,281.084,256.773,273.084,6.368,0.14859,1.53046,0.61999,0.92369,1.13459,3.94322,0.62998,0.119,20250410,0430
6,Ankara,,39.9333635,32.8597419,8.4,40.0,32.812,521,682,88242.26,2.34563,0.08003,0.0021595953,270.899,244.064,262.899,2.334,0.17406,3.01329,0.62924,0.88835,4.02211,0.04094,0.05299,0.152,20250410,0430
450MAD010001,Antananarivo,U.S. Department of State Madagascar- Antananarivo,-18.90848,47.53751,13.5,-19.0,47.5,285,729,87011.03,13.87682,2.78904,0.013031869,290.804,267.748,282.804,0.662,0.44846,0.07917,2.76996,0.07374,0.72963,0.74622,0.0215,0.042,20250410,0430
7,Antwerp,,51.2213404,4.4051485,3.8,51.25,4.375,566,591,102754.22,5.31679,0.15614,0.0028913347,279.94,256.129,271.94,2.609,0.62312,2.7128,1.35123,2.58715,3.2337,2.87365,0.79096,0.177,20250410,0430
8,Apia,,-13.8506958,-171.7513551,17.4,-13.75,-171.875,306,27,100878.05,19.53184,2.59859,0.013604248,302.671,268.662,294.671,6.257,0.00565,0.08309,0.03678,0.04494,0.35245,9.31287,3e-05,0.092,20250410,0430
795ABT010001,Ashgabat,"U.S. Department of State - Ashgabat, Turkmenistan",37.9415,58.3879,10.7,38.0,58.438,513,764,99703.195,6.11525,0.88571,0.0041476246,297.637,260.5,289.637,7.063,0.15823,44.32244,1.13433,0.88919,2.49126,0.02785,5e-05,0.365,20250410,0430
9,Asmara,,15.3228767,38.9250517,16.8,15.25,39.062,422,702,96981.55,12.10474,0.4738,0.0056981808,299.349,270.867,291.349,0.945,0.6239,17.76821,3.69353,1.73033,5.34385,3.75387,0.03696,0.237,20250410,0430
600PAR010001,Asuncion,U.S. Department of State Paraguay - Asuncion,-25.293536,-57.60395,7.8,-25.25,-57.5,260,393,100538.12,9.85405,1.01037,0.008042659,292.21,265.528,284.21,2.055,3.99208,10.84126,39.85628,2.24325,1.66682,0.21784,0.02163,0.146,20250410,0430
11,Athens,,37.9838096,23.7275388,2.7,38.0,23.75,513,653,101010.47,4.87479,0.33653,0.002358221,283.555,248.245,275.555,2.866,1.31803,1.61648,4.37754,8.18338,2.58169,1.15393,0.31394,0.131,20250410,0430
12,Auckland,,-36.8508827,174.7644881,13.1,-36.75,174.688,214,1136,102930.016,6.01049,0.15011,0.0020380667,291.445,258.146,283.445,1.645,0.01147,0.40427,0.13978,0.08137,0.26812,4.5548,0.00022,0.038,20250410,0430
368IRQ010001,Baghdad,U.S. Department of State Iraq - Baghdad,33.3128,44.3615,7.3,33.25,44.375,494,719,99890.75,8.14311,1.80283,0.005819194,298.351,258.606,290.351,3.422,0.63497,156.71009,1.63447,22.94529,2.60222,0.00178,0.00288,0.735,20250410,0430
031AZE010001,Baku,U.S. Department of State Azerbaijan - Baku,40.386992,49.842946,15.1,40.5,50.0,523,736,101321.484,5.89936,1.89661,0.0061306953,282.211,258.03,274.211,11.706,0.14767,7.02032,0.73098,0.67273,2.58371,0.12461,0.04392,0.697,20250410,0430
466ML1010001,Bamako,U.S. Department of State Mali - Bamako,12.632524,-8.036911,18.1,12.75,-8.125,412,551,96634.484,13.15837,2.29823,0.008448967,302.666,267.45,294.666,3.545,1.07898,35.70428,8.11972,0.31204,0.83369,0.35814,0.00048,0.282,20250410,0430
14,Bandar_Seri_Begawan,,4.9030522,114.939821,12.7,5.0,115.0,381,945,100866.34,17.50193,2.9463,0.013344577,301.388,268.846,293.388,2.136,0.22376,0.62859,1.93655,0.80281,1.21907,1.33573,0.0003,0.068,20250410,0430
TPCD0052T,Bangkok,,13.727622,100.486568,13.3,13.75,100.625,416,899,100902.414,17.15217,4.44471,0.014099391,305.953,268.344,297.953,2.791,2.1528,2.90491,25.32014,1.84718,6.99385,1.43916,0.00714,0.701,20250410,0430
16,Bangui,,4.3946735,18.5581899,17.8,4.5,18.438,379,636,95763.945,16.31267,4.0733,0.01309994,296.581,269.142,288.581,1.397,0.53063,30.38716,6.21141,0.70275,0.57112,0.03931,0.0015,0.205,20250410,0430
070BH2010001,Banja_Luka,U.S. Department of State Bosnia Herzegovina - Banja Luka,44.7725,17.185556,2.5,44.75,17.188,540,632,100050.45,5.52035,0.45241,0.003175513,280.44,247.757,272.44,1.946,0.28269,0.86473,0.84326,2.94024,1.85497,0.20435,1.25683,0.23,20250410,0430
18,Banjul,,13.454375,-16.5753186,5.3,13.5,-16.562,415,524,100833.66,11.86197,0.88889,0.005645156,294.872,266.068,286.872,3.368,0.29871,2.53241,1.43918,1.47355,0.69192,3.68962,0.00566,0.401,20250410,0430
19,Barcelona,,41.3873974,2.168568,12.6,41.5,2.188,527,584,97055.94,8.68924,1.16981,0.0052185985,284.804,254.784,276.804,0.858,0.6302,3.3464,1.74551,2.23377,4.0291,1.15374,1.97513,0.373,20250410,0430
156BJ1010001,Beijing,U.S. Department of State China - Beijing,39.953352,116.466258,17.0,40.0,116.562,521,950,98915.39,3.88978,0.15884,0.0031149315,295.856,250.815,287.856,4.148,3.6917,6.70483,8.06286,26.71004,6.12701,0.06044,0.25011,0.286,20250410,0430
20,Beirut,,33.8937913,35.5017767,16.4,34.0,35.625,497,691,87027.45,5.45604,0.04949,0.00518289,277.474,255.325,269.474,5.447,0.0834,0.83307,0.28197,0.82774,2.06738,3.45704,0.08829,0.116,20250410,0430
21,Belfast,,54.597285,-5.93012,10.8,54.5,-5.938,579,558,103025.65,5.23773,0.58812,0.001228268,282.093,256.222,274.093,2.518,0.62975,3.51006,1.55806,4.35901,2.04152,0.87708,0.27878,0.117,20250410,0430
22,Belgrade,,44.8125449,20.4612299,13.6,44.75,20.312,540,642,100609.625,3.63214,0.64061,0.0030324971,278.901,246.109,270.901,4.425,0.67067,1.39063,2.26877,10.42199,2.37614,0.07015,0.98423,0.187,20250410,0430
084BZ1010001,Belmopan,U.S. Department of State Belize - Belmopan,17.256124,-88.773876,1.0,17.25,-88.75,430,293,101780.45,12.59658,0.20364,0.0075900117,295.84,268.722,287.84,1.409,0.25653,3.09224,3.43566,0.6336,2.20278,5.44296,0.01056,0.274,20250410,0430
24,Berlin,,52.5200066,13.404954,3.1,52.5,13.438,571,620,101553.55,4.69569,0.88636,0.0030397908,277.203,253.273,269.203,1.973,0.35251,2.10103,1.57854,1.03416,2.94477,2.07425,1.85341,0.17,20250410,0430
25,Bern,,46.9479739,7.4474468,7.0,47.0,7.5,549,601,95387.55,4.41416,0.80312,0.0029332237,278.749,253.902,270.749,1.386,1.14705,2.1459,2.98883,6.27977,1.77294,0.32409,2.58487,0.111,20250410,0430
417BI1010001,Bishkek,U.S. Department of State Kyrgyzstan - Bishkek,42.827626,74.58384,16.9,42.75,74.688,532,816,90898.4,5.04337,0.06754,0.0044129295,290.763,256.197,282.763,1.09,0.14585,12.39005,0.67981,3.81124,1.638,0.01584,0.00056,0.187,20250410,0430
BG1010001,Bogota,U.S. Department of State Colombia - Bogota,4.637735,-74.094856,4.5,4.75,-74.062,380,340,73153.945,10.74014,4.98608,--,283.714,268.944,275.714,0.605,0.1573,1.22942,0.96641,1.30061,0.42366,0.06655,0.08923,0.036,20250410,0430
26,Bordeaux,,44.837789,-0.57918,10.4,44.75,-0.625,540,575,101561.31,6.20996,0.10351,0.0040129996,283.0,250.672,275.0,4.37,0.64789,1.91984,2.55477,1.34601,1.04735,0.23778,1.07143,0.1,20250410,0430
27,Brasilia,,-15.7975154,-47.8918874,10.0,-15.75,-47.812,298,424,90336.11,14.52203,4.56906,0.011773432,293.72,267.791,285.72,1.759,0.50139,0.77506,6.34744,1.92251,0.6192,0.69734,0.02576,0.055,20250410,0430
28,Bratislava,,48.1485965,17.1077478,12.7,48.25,17.188,554,632,98728.03,4.84987,0.6939,0.0033892991,279.756,248.108,271.756,6.154,0.75303,2.13066,2.37957,6.26334,2.05518,0.2084,4.28276,0.226,20250410,0430
29,Brazzaville,,-4.2633597,15.2428853,7.9,-4.25,15.312,344,626,94790.72,16.75482,3.33186,0.0131224785,296.881,268.438,288.881,1.377,0.94451,35.36659,7.65922,1.45676,0.67832,0.59473,0.00579,0.2,20250410,0430
30,Bridgetown,,13.1059816,-59.6131741,14.3,13.0,-59.688,413,386,101450.875,17.47341,3.56345,0.010626242,299.814,265.81,291.814,7.43,0.16693,9.91688,1.26219,0.19874,0.71349,11.07497,0.00014,0.185,20250410,0430
31,Brussels,,50.8476424,4.3571696,10.9,50.75,4.375,564,591,102568.68,4.87896,0.55364,0.002431511,278.514,255.363,270.514,0.633,0.65079,3.29635,1.38407,3.51795,3.77447,2.18271,1.52744,0.206,20250410,0430
32,Bucharest,,44.4267674,26.1025384,14.3,44.5,26.25,539,661,100530.9,3.83883,0.50798,0.0019142965,274.569,245.144,266.569,2.058,0.55974,0.66841,2.01489,5.81497,2.8385,0.1319,2.8582,0.221,20250410,0430
33,Budapest,,47.497912,19.040235,1.7,47.5,19.062,551,638,98959.625,4.52716,0.6604,0.0035918271,279.618,246.533,271.618,7.326,0.77026,1.93996,2.4052,5.56892,2.42344,0.13989,4.33844,0.214,20250410,0430
032BAA010002,Buenos_Aires,U.S. Department of State Argentina - Buenos Aires,-34.6036844,-58.3815591,12.6,-34.5,-58.438,223,390,101660.84,11.73118,0.15304,0.009142531,291.45,263.474,283.45,6.617,0.02915,0.27255,0.60074,0.1281,0.27547,7.62329,0.03265,0.081,20250410,0430
34,Bujumbura,,-3.361378,29.3598782,12.5,-3.25,29.375,348,671,82421.766,13.481,2.40272,--,289.262,269.036,281.262,0.719,4.05916,6.24275,14.61063,1.59465,1.2232,0.17843,0.17809,0.136,20250410,0430
35,Busan,,35.1795543,129.0756416,7.9,35.25,129.062,502,990,99510.28,8.02621,0.3417,0.005793342,291.111,251.356,283.111,5.059,2.4874,6.54624,6.9124,28.97703,11.93935,0.87009,0.29883,0.571,20250410,0430
818EGY010001,Cairo,U.S. Department of State Egypt - Cairo,30.04147,31.23289,5.1,30.0,31.25,481,677,100481.2,7.36318,0.20035,0.0035979939,286.314,257.087,278.314,2.843,0.43359,4.30451,1.0533,19.43636,3.04,1.90037,1.1717,0.134,20250410,0430
CC0090222,Calgary,,51.0814,-114.1403,5.0,51.0,-114.062,565,212,90412.13,3.19632,0.13575,0.0021817733,278.61,246.192,270.61,4.71,0.59512,0.58013,1.27849,12.83531,0.65815,0.02342,0.0125,0.091,20250410,0430
38,Canberra,,-35.2809368,149.1300092,7.0,-35.25,149.062,220,1054,93819.42,5.22896,2.069,0.004840417,294.546,258.34,286.546,4.469,0.23558,0.56769,2.66147,1.5774,0.80565,0.72284,0.00019,0.071,20250410,0430
39,Cape_Town,,-33.9248685,18.4240553,8.4,-34.0,18.438,225,636,99782.31,10.28031,0.8254,0.0081292605,290.102,262.603,282.102,1.801,0.92747,0.42853,3.3936,5.42825,1.03041,1.38892,0.02368,0.032,20250410,0430
40,Caracas,,10.4805937,-66.9036063,3.8,10.5,-66.875,403,363,100878.766,18.14141,4.21524,0.011580138,298.738,268.233,290.738,5.081,0.10426,6.90008,1.15706,0.48157,0.83218,9.0621,0.00202,0.19,20250410,0430
41,Cartagena,,10.3932277,-75.4832311,19.5,10.5,-75.625,403,335,100822.484,19.47903,1.93493,0.011487591,300.023,269.623,292.023,6.764,0.14835,9.29361,1.10243,1.08158,2.10322,14.41909,0.00221,0.235,20250410,0430
42,Casablanca,,33.5731104,-7.5898434,11.6,33.5,-7.5,495,553,99559.2,11.46554,1.31517,0.0065156864,289.398,256.576,281.398,2.058,0.63895,2.70919,1.27124,26.66556,8.85208,1.70664,0.79502,0.667,20250410,0430
43,CATANO,,18.4465,66.1356,13.5,18.5,66.25,435,789,101006.8,17.12318,0.12204,0.0030921702,301.572,265.908,293.572,3.98,0.59669,3.1606,3.52262,0.28902,3.89896,3.07971,0.00128,0.326,20250410,0430
44,Ceiba__Vega_Baja,,18.4425245,-66.3562141,12.9,18.5,-66.25,435,365,101636.26,16.74495,0.13412,0.012496488,300.036,267.973,292.036,5.873,0.13373,6.13129,1.325,0.30995,0.67553,7.01133,0.00046,0.146,20250410,0430
356DS1010002,Chennai,U.S. Department of State India - Chennai,13.08784,80.278475,10.2,13.0,80.312,413,834,100902.266,19.50212,1.52388,0.009267878,301.677,268.892,293.677,4.418,2.68078,1.12393,9.12696,8.64087,3.86657,5.33969,0.06194,0.417,20250410,0430
45,Chiang_Mai,,18.7883439,98.9853008,9.2,18.75,99.062,436,894,91949.72,11.09016,2.49418,0.0104243085,303.073,268.146,295.073,1.202,4.15176,2.06798,44.71097,1.27559,13.70162,0.04474,0.75307,1.164,20250410,0430
498MLD010001,Chisinau,U.S. Department of State Moldova - Chisinau,47.021561,28.81938,8.7,47.0,28.75,549,669,99450.45,3.03214,0.49893,0.0019688692,273.621,243.658,265.621,5.505,0.60171,0.84128,1.99722,2.62991,1.80575,0.12903,2.9783,0.201,20250410,0430
46,Ciudad_Juarez,,31.6903638,-106.4245478,14.6,31.75,-106.562,488,236,87609.09,2.42676,0.28381,0.0015691972,295.076,262.046,287.076,3.294,0.7935,2.7087,3.59703,3.78962,0.96475,0.23765,6e-05,0.068,20250410,0430
144CMB010001,Colombo,U.S. Department of State Sri Lanka - Colombo,6.909445,79.875341,17.3,7.0,80.0,389,833,98678.016,18.69536,2.02238,0.01299266,300.131,270.163,292.131,1.245,1.36147,1.97479,8.49003,5.08854,6.48427,6.62829,0.08397,0.586,20250410,0430
324GN1010001,Conakry,U.S. Department of State Guinea - Conakry,9.5951,-13.6364,19.6,9.75,-13.438,399,533,99802.05,16.92637,3.09208,0.011758036,296.767,267.593,288.767,0.482,2.72429,21.20457,23.08151,1.03101,3.63592,2.34813,0.12057,0.582,20250410,0430
47,Copenhagen,,55.6760968,12.5683372,9.3,55.75,12.5,584,617,101926.78,3.38794,1.07005,0.001755863,275.37,254.377,267.37,2.931,0.1683,1.46766,0.46498,0.84069,0.12561,0.67166,0.4331,0.068,20250410,0430
48,Cotonou,,6.3702928,2.3912362,18.0,6.25,2.5,386,585,100730.34,19.50245,2.157,0.012102289,299.986,268.274,291.986,2.645,1.11051,35.15322,4.63138,1.57387,0.8633,4.59666,0.00159,0.393,20250410,0430
49,CULEBRA,,29.4874353,-98.6681378,8.0,29.5,-98.75,479,261,97806.01,8.94535,0.53799,0.0032975096,290.833,261.654,282.833,3.877,1.13284,2.28033,4.97626,3.313,2.09253,1.22837,0.02133,0.122,20250410,0430
531CUR010001,Curacao,U.S. Department of State Curacao,12.16957,-68.99002,11.9,12.25,-69.062,410,356,101360.67,19.01448,3.58071,0.009885302,300.233,267.822,292.233,8.942,0.07303,5.0206,0.64654,0.30099,0.63703,10.54283,0.00038,0.158,20250410,0430
686SEN010001,Dakar,U.S. Department of State Senegal - Dakar,14.744791,-17.526484,5.1,14.75,-17.5,420,521,101062.91,13.07027,0.74727,0.005315423,292.543,265.791,284.543,2.663,0.02626,0.30778,0.29822,1.52085,1.03026,8.248,0.00344,0.266,20250410,0430
51,Dar_es_Salaam,,-6.792354,39.2083284,16.8,-6.75,39.062,334,702,101249.555,19.04305,1.27998,0.012027443,300.912,268.629,292.912,4.11,0.32059,0.11401,1.59469,0.33603,0.31256,3.53201,0.00023,0.066,20250410,0430
682DRN010000,Dhahran,U.S. Department of State Saudi Arabia - Dhahran,26.2361248,50.0393017,4.2,26.25,50.0,466,737,100787.65,9.79954,0.38937,0.0039409343,300.35,266.134,292.35,2.852,0.26491,36.38234,1.77829,52.80552,7.93548,0.29213,0.02635,0.365,20250410,0430
DK1010001,Dhaka,U.S. Department of State Bangladesh - Dhaka,23.796374,90.424614,12.2,23.75,90.312,456,866,100781.31,12.10841,0.45894,0.011301818,306.506,264.94,298.506,2.065,1.47044,1.38137,12.04011,1.65803,3.29737,0.71452,0.01517,0.405,20250410,0430
52,Dili,,-8.5568557,125.5603143,9.5,-8.5,125.625,327,979,100673.75,17.70246,4.48235,0.014181882,301.576,269.231,293.576,2.212,0.12475,1.67117,1.33565,0.4046,0.82193,1.89382,0.0004,0.079,20250410,0430
53,Djibouti_City,,11.5720765,43.1456475,8.3,11.5,43.125,407,715,101198.27,17.90912,0.47178,0.0013794506,299.527,268.23,291.527,3.506,0.49046,5.9901,3.02994,0.03982,3.56798,2.42545,0.01564,0.268,20250410,0430
634QA1010001,Doha,U.S. Department of State Qatar - Doha,25.3337,51.22953,5.1,25.25,51.562,462,741,100743.65,10.27256,0.35361,0.0018275923,298.437,266.298,290.437,4.235,0.28651,32.54063,1.44542,20.90772,18.47834,0.91354,0.09538,0.285,20250410,0430
55,Douala,,4.0510564,9.7678687,10.6,4.0,9.688,377,608,100023.97,18.81947,5.43766,0.013734063,297.497,268.954,289.497,0.557,0.84919,56.90223,6.00068,2.41563,1.01506,2.57382,0.013,0.562,20250410,0430
784DB1010001,Dubai,U.S. Department of State UAE - Dubai,25.258481,55.309165,6.5,25.25,55.312,462,754,100628.03,10.95122,0.31721,0.0039771916,298.726,265.01,290.726,1.199,1.39855,47.08121,3.58133,35.56574,6.51685,2.34692,0.22655,0.247,20250410,0430
56,Dublin,,53.3498053,-6.2603097,11.1,53.25,-6.25,574,557,103236.984,5.88559,0.54665,0.0019488065,282.785,256.391,274.785,0.934,0.28229,2.68492,1.29107,2.39973,1.87955,1.25766,0.1657,0.122,20250410,0430
57,Durban,,-29.8586804,31.0218404,14.6,-29.75,30.938,242,676,100774.055,12.94494,0.39432,0.008552857,294.554,264.704,286.554,3.954,2.08325,1.08483,8.55447,9.69922,3.50495,0.49311,0.09588,0.081,20250410,0430
762DUS010001,Dushanbe,U.S. Department of State Tajikistan - Dushanbe,38.557671,68.775917,7.4,38.5,68.75,515,797,79776.56,6.45905,0.62049,--,281.13,258.524,273.13,1.625,0.69942,20.02077,4.44065,0.22014,5.56405,0.04186,0.27235,0.294,20250410,0430
58,Dusseldorf,,51.2277411,6.7734556,7.5,51.25,6.875,566,599,101507.84,4.97311,0.12491,0.002181801,278.096,255.733,270.096,2.64,0.90597,3.41493,1.72594,25.99391,5.16183,2.89002,2.00423,0.249,20250410,0430
59,Edinburgh,,55.953252,-3.188267,6.5,56.0,-3.125,585,567,102413.82,4.82144,0.51318,0.0021083849,277.467,256.561,269.467,3.476,1.19107,4.04904,2.79461,15.14011,2.23941,0.2174,0.84865,0.119,20250410,0430
60,Florence,,43.7695604,11.2558136,2.2,43.75,11.25,536,613,95299.82,6.14929,0.17289,0.004716999,280.217,251.066,272.217,1.38,0.95568,2.15925,2.55254,0.78001,2.30528,1.45401,2.50953,0.174,20250410,0430
61,Frankfurt_am_Main,,50.1109221,8.6821267,13.3,50.0,8.75,561,605,99825.625,4.67347,0.83673,0.002193254,277.165,254.325,269.165,1.793,0.38577,3.26048,1.3052,0.72021,4.03993,0.90424,3.07364,0.239,20250410,0430
62,Freetown,,8.4656765,-13.2317225,12.3,8.5,-13.125,395,535,100686.55,17.77893,2.89208,0.012540705,297.518,268.608,289.518,0.552,0.56365,10.741,2.11062,0.33163,2.37407,4.58846,0.02079,0.736,20250410,0430
63,Fukuoka,,33.5901838,130.4016888,13.0,33.5,130.312,495,994,99476.36,10.63001,0.68599,0.0064990865,293.731,254.74,285.731,5.539,1.6633,11.167,8.54241,4.83984,10.8289,1.32462,0.07079,0.811,20250410,0430
64,Gaborone,,-24.6282079,25.9231471,13.6,-24.75,25.938,262,660,90589.61,10.94327,0.09225,0.009854354,289.175,267.199,281.175,2.628,0.60936,2.0833,4.06478,2.6853,0.59621,0.03996,0.41782,0.066,20250410,0430
65,Gaziantep,,37.065953,37.37811,13.1,37.0,37.5,509,697,93491.734,5.88697,0.0545,0.004874005,281.881,251.704,273.881,4.213,0.36151,1.3211,1.4467,8.85279,3.04495,2.88368,0.43688,0.155,20250410,0430
66,Geneva,,46.2043907,6.1431577,9.7,46.25,6.25,546,597,94662.59,4.96344,0.41418,0.0028967224,280.234,253.759,272.234,7.002,0.93358,2.06991,2.5004,3.09994,1.38449,0.33892,1.9508,0.097,20250410,0430
67,Georgetown,,6.8012793,-58.1551255,6.6,6.75,-58.125,388,391,101341.61,18.52155,2.57489,0.013530492,300.397,268.492,292.397,6.711,0.41842,20.97832,3.38062,0.15098,0.85366,14.5409,0.00071,0.352,20250410,0430
68,Guadalajara,,20.6596988,-103.3496092,13.6,20.75,-103.438,444,246,83270.19,3.10498,0.06801,--,297.138,264.418,289.138,0.757,0.21847,2.20866,2.30132,1.05015,0.81561,0.26015,0.00014,0.087,20250410,0430
156GZ1010001,Guangzhou,U.S. Department of State China - Guangzhou,23.116785,113.318088,19.6,23.25,113.125,453,940,100222.484,14.13253,0.73331,0.012854315,301.513,265.116,293.513,1.532,1.95646,2.52529,9.07538,39.62173,10.44967,0.78163,0.10131,1.244,20250410,0430
320GT1010001,Guatemala_City,U.S. Department of State Guatemala - Guatemala City,14.989397,-90.522408,18.0,14.75,-90.625,421,287,86356.69,10.23969,0.30639,0.0100845285,286.427,269.389,278.427,0.972,0.39061,0.94927,2.48771,0.1006,1.16651,1.22842,0.17255,0.144,20250410,0430
69,Guayaquil,,-2.1894128,-79.8890662,14.0,-2.25,-80.0,352,321,101265.11,18.65475,5.35971,0.01371051,297.591,268.652,289.591,1.031,0.44492,4.82586,2.92198,21.41588,5.43338,6.46834,0.12018,0.388,20250410,0430
30113,Halifax,,44.647175,-63.573689,15.7,44.75,-63.438,540,374,101181.13,2.84399,0.1584,0.00061061786,270.604,247.926,262.604,2.186,0.17007,0.91181,0.95567,1.5804,1.78249,0.36321,0.03499,0.091,20250410,0430
71,Hamburg,,53.5510846,9.9936819,5.7,53.5,10.0,575,609,102037.81,4.90343,0.9632,0.003284028,277.858,255.345,269.858,1.836,0.33618,2.40312,1.17246,3.47786,3.33279,2.66798,1.28313,0.168,20250410,0430
72,Hamilton,,32.2945837,-64.7858887,10.5,32.25,-64.688,490,370,102087.16,14.72291,0.69634,0.009042105,293.932,259.773,285.932,4.43,0.07614,2.85475,0.55885,0.15963,1.53721,5.08302,0.01167,0.176,20250410,0430
HN1010001,Hanoi,U.S. Department of State Vietnam - Hanoi,21.021939,105.818806,11.2,21.0,105.938,445,916,100535.11,16.20998,3.24086,0.010425948,296.907,267.714,288.907,2.479,2.33603,3.05241,14.73525,4.11819,11.3644,0.94645,1.26345,0.932,20250410,0430
73,Harare,,-17.8216288,31.0492259,14.3,-17.75,30.938,290,676,87378.92,13.79292,1.24823,0.012829606,293.462,269.171,285.462,1.018,0.96895,0.60951,4.80018,1.13509,2.10531,0.51725,0.00218,0.082,20250410,0430
74,Havana,,23.1135925,-82.3665956,18.6,23.0,-82.5,453,313,101853.94,10.69522,0.05491,0.0008997198,296.56,263.307,288.56,6.556,0.16869,2.43653,1.19443,2.10258,2.57515,1.84908,0.00084,0.119,20250410,0430
75,Helsinki,,60.1698557,24.9383791,9.5,60.25,25.0,602,657,100526.766,1.77177,0.29424,0.0009875654,268.712,244.253,260.712,4.004,0.08797,0.78374,0.36115,0.22243,0.34154,1.02496,0.13149,0.081,20250410,0430
76,Hermosillo,,29.0729673,-110.9559192,8.3,29.0,-110.938,477,222,97140.23,1.69238,0.1489,0.001344664,299.686,263.199,291.686,3.571,0.12891,2.82998,1.10858,0.70843,0.43404,0.24703,7e-05,0.074,20250410,0430
704HC1010001,Ho_Chi_Minh_City,U.S. Department of State Vietnam - Ho Chi Minh,10.782773,106.700035,10.9,10.75,106.562,404,918,100546.516,16.37039,2.66425,0.013931565,305.603,268.829,297.603,1.224,0.83735,1.45479,8.00345,1.99209,3.40577,0.92366,0.00128,0.269,20250410,0430
77,Hong_Kong,,22.3193039,114.1693611,13.4,22.25,114.062,450,942,100750.484,14.97367,1.75708,0.012405135,296.986,264.33,288.986,3.183,0.87871,2.41706,6.79073,10.09589,5.91675,1.89121,0.03011,0.674,20250410,0430
356DS1010005,Hyderabad,U.S. Department of State India - Hyderabad,17.38405,78.45636,13.8,17.5,78.438,431,828,94884.36,11.23067,2.63498,0.009578431,303.607,265.003,295.607,5.774,2.55646,5.0719,12.28785,8.58391,8.79207,0.4078,0.08095,0.704,20250410,0430
5.86E+11,Islamabad,U.S. Department of State Pakistan - Islamabad,33.725614,73.11602,10.2,33.75,73.125,496,811,85450.96,7.16318,1.32444,0.006700466,294.635,261.89,286.635,1.347,1.51923,6.56176,10.29631,3.54083,6.82011,0.02404,0.26103,0.362,20250410,0430
78,Istanbul,,41.0082376,28.9783589,7.1,41.0,29.062,525,670,101387.17,4.04455,0.23628,0.0022473992,279.544,245.958,271.544,5.287,2.15453,2.78193,7.4849,43.05377,5.31694,0.40191,0.48109,0.189,20250410,0430
JK1010001,Jakarta,U.S. Department of State Indonesia - Jakarta,-6.236704,106.793244,5.6,-6.25,106.875,336,919,100930.42,17.05872,3.53037,0.012864398,303.042,269.255,295.042,1.713,4.34571,1.15518,27.6051,7.68154,17.74981,0.40989,0.1179,0.531,20250410,0430
682JDA010001,Jeddah,U.S. Department of State Saudi Arabia - Jeddah,21.543486,39.172989,13.5,21.5,39.062,447,702,99220.44,10.28989,0.89645,0.003356078,301.024,266.143,293.024,1.982,1.90607,35.80867,12.55697,222.3619,40.55056,7.83699,1.18836,0.562,20250410,0430
80,Jerusalem,,31.768319,35.21371,9.6,31.75,35.312,488,690,99979.45,7.06441,0.10691,0.005728392,288.451,256.584,280.451,2.295,0.1482,2.03906,0.64577,3.37432,2.29749,2.5148,0.10148,0.141,20250410,0430
81,Johannesburg,,-26.2041028,28.0473051,9.3,-26.25,28.125,256,667,84541.61,7.48334,0.2353,--,284.622,267.325,276.622,2.545,1.13959,1.45938,4.71961,14.06854,1.13781,0.14125,0.2532,0.039,20250410,0430
728OD1010001,Juba,U.S. Department of State South Sudan - Juba,4.859363,31.57125,12.2,4.75,31.562,380,678,95598.3,15.45286,1.9748,0.012387918,297.754,268.137,289.754,2.302,0.37762,4.34055,4.77946,0.20834,1.24958,0.21371,0.0042,0.21,20250410,0430
800KP1010001,Kampala,U.S. Department of State Uganda - Kampala,0.300225,32.591554,14.2,0.25,32.5,362,681,88716.55,13.98863,2.48137,0.013395179,295.116,268.838,287.116,0.79,1.77593,3.69146,6.8751,0.83083,1.11352,0.38964,0.00464,0.144,20250410,0430
82,Kaohsiung,,22.6272784,120.3014353,13.7,22.75,120.312,452,962,93778.28,13.68539,2.50953,0.012522625,295.486,263.488,287.486,1.223,1.46096,4.41759,11.40359,2.18287,10.29627,0.92517,0.15345,0.949,20250410,0430
586PK2010001,Karachi,U.S. Department of State Pakistan - Karachi,24.8415,67.0091,17.7,24.75,66.875,460,791,99817.47,15.46855,2.25907,0.0019326664,300.913,262.051,292.913,5.696,0.87668,8.72545,5.1336,11.08209,4.80816,5.14696,0.03724,0.427,20250410,0430
KM1010002,Kathmandu,U.S. Department of State Nepal - Kathmandu,27.712464,85.315703,3.8,27.75,85.312,472,850,71349.586,8.15279,2.90488,--,283.311,262.247,275.311,1.719,1.80235,1.40895,16.83438,0.50307,6.53952,0.0441,1.01161,0.558,20250410,0430
736SU1730002,Khartoum,U.S. Department of State Sudan - Khartoum,15.5006544,32.5598994,6.4,15.5,32.5,423,681,95988.86,2.62544,1.74646,0.0028704647,300.698,268.447,292.698,5.016,0.14997,47.45175,1.31688,0.18235,0.67955,0.09771,4e-05,0.158,20250410,0430
646KYI010001,Kigali,,-1.936231,30.077952,9.3,-2.0,30.0,353,673,84346.766,12.58646,1.94376,--,290.493,269.057,282.493,1.014,2.48392,6.20637,10.50699,1.46004,0.83257,0.125,0.07862,0.092,20250410,0430
86,Kingston,,18.0178743,-76.8099041,7.2,18.0,-76.875,433,331,99973.8,15.46758,1.25817,0.0075099915,298.658,268.704,290.658,1.251,0.15676,1.89983,1.67259,0.61746,0.93638,5.92269,0.0026,0.073,20250410,0430
87,Kinshasa,,-4.4419311,15.2662931,8.2,-4.5,15.312,343,626,95720.38,16.54795,3.60875,0.013157146,297.001,268.519,289.001,1.357,0.75402,30.18354,6.67067,0.73591,0.5124,0.47786,0.00126,0.181,20250410,0430
88,Kirkuk,,35.4666329,44.3798895,3.7,35.5,44.375,503,719,93422.58,8.52014,1.96697,0.0045084474,294.398,258.251,286.398,3.991,0.04769,36.35624,0.23328,3.56586,0.64829,0.0284,0.0007,0.574,20250410,0430
356DS1010003,Kolkata,U.S. Department of State India - Kolkata,22.56263,88.36304,11.1,22.5,88.438,451,860,100836.56,13.03208,0.69943,0.011399362,305.535,265.356,297.535,2.418,1.41691,1.00755,10.94923,0.77926,1.99901,0.6179,0.00921,0.253,20250410,0430
89,Krakow,,50.0646501,19.9449799,8.2,50.0,20.0,561,641,98751.66,2.3684,0.29602,0.00031725838,273.568,245.017,265.568,7.511,0.21687,1.87354,0.79883,1.78876,0.66449,1.01948,1.29206,0.099,20250410,0430
458MY1010001,Kuala_Lumpur,U.S. Department of State Malaysia - Kuala Lumpur,3.15675,101.72145,18.5,3.25,101.562,374,903,99162.81,17.74086,3.96253,0.014304349,303.024,268.429,295.024,0.688,0.60697,0.94557,5.96491,4.35355,3.73374,0.51798,0.00689,0.194,20250410,0430
414KC1010001,Kuwait_City,U.S. Department of State Kuwait - Kuwait City,29.292317,48.047679,19.9,29.5,48.125,478,731,100665.57,10.45994,2.08853,0.0055735335,299.265,263.008,291.265,3.866,0.31238,45.28418,2.39423,45.75894,7.85224,0.47469,0.00677,0.425,20250410,0430
90,Kyiv,,50.4501,30.5234,9.1,50.5,30.625,563,675,98851.28,3.35473,0.34544,0.0030679964,272.968,240.4,264.968,4.589,1.63286,1.46033,5.19768,6.43204,5.58011,0.38875,6.12786,0.374,20250410,0430
91,La_Paz,,-16.489689,-68.1192936,1.3,-16.5,-68.125,295,359,73703.84,11.46547,1.98165,--,284.718,269.045,276.718,0.047,0.07683,0.8096,0.75121,0.42655,0.30236,0.004,0.01687,0.036,20250410,0430
566NI2010001,Lagos,U.S. Department of State Nigeria - Lagos,6.440483,3.406815,7.0,6.5,3.438,387,588,100553.0,19.37177,2.6921,0.013536737,298.749,268.266,290.749,0.934,3.11469,32.75198,11.25684,5.92296,0.89616,3.29936,0.03542,0.479,20250410,0430
586PK3010003,Lahore,U.S. Department of State Pakistan - Lahore,31.560078,74.33589,2.7,31.5,74.375,487,815,97882.96,7.62095,2.32723,0.0062320926,307.02,260.759,299.02,2.144,4.09856,6.6418,25.93962,15.46977,11.83325,6e-05,1e-05,0.714,20250410,0430
92,Leipzig,,51.3396955,12.3730747,13.3,51.25,12.5,566,617,101013.05,4.86401,0.89208,0.0029673115,276.563,253.821,268.563,2.562,0.46801,3.27303,1.92414,2.07008,5.15666,1.93783,2.19356,0.27,20250410,0430
266GAB010001,Libreville,U.S. Department of State Gabon - Libreville,0.4161976,9.4672676,13.9,0.5,9.375,363,607,100477.04,19.28517,3.99065,0.014044819,298.004,268.146,290.004,1.041,0.32306,21.4091,2.98292,0.15462,0.70278,1.22764,0.00126,0.457,20250410,0430
93,Lilongwe,,-13.9626121,33.7741195,4.9,-14.0,33.75,305,685,90242.34,13.13546,0.56831,0.013547384,294.198,268.451,286.198,0.624,0.24867,0.31382,1.6364,0.13868,0.27739,1.08671,0.0005,0.035,20250410,0430
604LM1010001,Lima,U.S. Department of State Peru - Lima,-12.0463731,-77.042754,16.6,-12.0,-77.188,313,330,85420.38,11.65268,4.88879,0.011240669,290.836,267.572,282.836,0.292,1.01297,1.45582,1.52841,13.00954,5.54576,0.26298,0.0022,0.326,20250410,0430
94,Lisbon,,38.7222524,-9.1393366,7.3,38.75,-9.062,516,548,100564.17,9.3456,1.29944,0.0060113426,289.349,257.318,281.349,3.482,0.64896,2.67579,3.85698,3.24795,1.27719,1.021,0.18728,0.292,20250410,0430
95,Ljubljana,,46.0569465,14.5057515,11.9,46.0,14.375,545,623,93873.38,4.52442,0.84384,0.002561057,278.49,250.104,270.49,1.212,0.90024,1.65704,2.73185,3.66635,2.95355,1.60987,6.27109,0.132,20250410,0430
768TOG010001,Lome,U.S. Department of State Togo - Lome,6.185167,1.214166,14.1,6.25,1.25,386,581,100546.34,19.1534,2.6231,0.013394995,299.044,268.47,291.044,1.862,1.42883,31.166,6.80325,0.98452,0.73415,4.1601,0.00966,0.389,20250410,0430
97,London,,51.5072178,-0.1275862,8.9,51.5,0.0,567,577,102419.03,4.74315,0.56949,0.0024571572,277.619,256.152,269.619,2.101,0.46125,3.28394,1.28279,1.23517,3.81284,1.57399,0.98236,0.202,20250410,0430
98,Luanda,,-8.8146556,13.2301756,13.6,-8.75,13.125,326,619,100590.28,16.62684,4.35855,0.013584567,297.099,268.105,289.099,2.122,0.38556,8.8866,2.28828,0.85223,0.65152,3.51585,0.00236,0.269,20250410,0430
99,Lusaka,,-15.3875259,28.3228165,17.5,-15.5,28.438,299,668,89134.66,12.70479,0.5215,0.011088989,294.083,268.979,286.083,0.594,0.17965,0.87084,2.41785,5.33315,0.87122,0.5761,0.00045,0.059,20250410,0430
100,Luxembourg_City,,49.611621,6.1319346,15.1,49.5,6.25,559,597,98848.68,4.97421,0.81686,0.001679062,276.45,254.88,268.45,1.833,0.56803,2.75338,1.46229,4.25282,2.79039,0.52697,3.61201,0.177,20250410,0430
101,Lyon,,45.764043,4.835659,11.6,45.75,4.688,544,592,99142.59,5.6005,0.1214,0.0026039444,278.718,253.339,270.718,3.791,1.11729,2.10265,4.13386,2.94351,2.06207,0.26662,1.89805,0.121,20250410,0430
102,Madrid,,40.4167754,-3.7037902,10.0,40.5,-3.75,523,565,92163.89,6.18575,0.51579,0.0038168465,283.955,257.009,275.955,2.577,0.30724,2.42445,1.71251,2.50223,0.9648,0.42289,0.19813,0.094,20250410,0430
103,Malabo,,3.7549606,8.7821344,3.6,3.75,8.75,376,605,99351.97,18.82138,3.82191,0.012641152,300.249,267.957,292.249,2.543,0.56498,34.43408,3.24673,0.69486,0.61579,2.56655,0.00128,0.381,20250410,0430
104,Managua,,12.1149926,-86.2361744,12.9,12.0,-86.25,409,301,99912.13,15.48599,1.27832,0.01140745,299.198,268.185,291.198,3.926,0.33269,3.06681,5.12778,0.71931,1.30955,4.40689,0.00102,0.1,20250410,0430
048MNA010001,Manama,U.S. Department of State Bahrain - Manama,26.204697,50.570833,4.8,26.25,50.625,466,739,100771.65,12.26383,0.36982,0.0018180555,297.916,266.041,289.916,3.462,0.20193,31.08544,1.32536,68.34696,18.12909,0.99903,0.05525,0.316,20250410,0430
608PH1010001,Manila,U.S. Department of State Philippines - Manila,14.57711,120.9778,12.2,14.5,120.938,419,964,96646.66,12.41751,1.17205,0.010613203,306.046,268.711,298.046,1.45,0.31698,1.28621,3.31172,1.667,1.49215,0.77862,0.00037,0.123,20250410,0430
508MAP010001,Maputo,U.S. Department of State Mozambique - Maputo,-25.90382,32.62835,8.1,-26.0,32.5,257,681,101345.445,16.23045,0.30211,0.012044206,298.152,267.414,290.152,6.828,0.179,0.78863,1.49578,1.52203,2.15957,7.04781,0.0028,0.241,20250410,0430
107,Marseille,,43.296482,5.36978,6.9,43.25,5.312,534,594,97696.016,6.87603,0.16075,0.004991273,281.535,253.001,273.535,1.378,0.74795,1.69793,2.35958,13.12142,2.35251,0.76087,0.89011,0.175,20250410,0430
108,Maseru,,-29.3150767,27.4869229,7.3,-29.25,27.5,244,665,83931.766,6.27944,0.3302,--,282.85,266.095,274.85,1.211,2.31801,0.62917,9.25527,2.17295,0.60213,0.31016,0.24049,0.035,20250410,0430
109,Matamoros,,25.8690294,-97.5027376,13.2,25.75,-97.5,464,265,102019.22,10.10462,0.416,0.0027714742,294.222,261.741,286.222,5.857,0.14825,2.31239,1.39705,0.24265,1.22842,2.0777,0.00073,0.127,20250410,0430
110,Mbabane,,-26.3054482,31.1366715,12.9,-26.25,31.25,256,677,96579.95,13.77613,0.35597,0.00851501,293.829,266.864,285.829,3.253,0.28164,0.99325,2.05861,1.16759,2.30435,4.27228,0.04553,0.169,20250410,0430
111,Medan,,3.5951956,98.6722227,13.7,3.5,98.75,375,893,101031.766,18.53717,4.79295,0.012967785,301.548,268.919,293.548,3.62,1.53403,1.46413,14.67766,4.52646,4.52613,1.50835,0.04631,0.287,20250410,0430
112,Melbourne,,-37.8136276,144.9630576,7.8,-37.75,145.0,210,1041,97521.01,5.176,0.82961,0.004867391,296.362,259.431,288.362,1.66,0.09818,0.82537,1.1463,0.32071,0.32502,0.32198,9e-05,0.044,20250410,0430
113,Merida,,20.9673702,-89.5925857,10.5,21.0,-89.688,445,290,102075.76,9.39124,0.0003,0.00072106306,293.84,263.715,285.84,2.428,0.0846,2.19577,0.54689,0.1924,1.55102,1.75581,0.00161,0.102,20250410,0430
800090154,Mexico_City,,19.4116,-99.1522,10.5,19.5,-99.062,439,260,76039.64,5.90418,0.61511,--,284.686,264.441,276.686,1.647,0.21086,2.05661,1.62233,1.4979,0.66318,0.03967,0.02565,0.116,20250410,0430
115,Milan,,45.4642035,9.189982,10.7,45.5,9.062,543,606,96467.55,5.4632,0.44024,0.0047757225,282.304,252.828,274.304,1.137,3.62269,1.45469,10.58493,8.81908,3.11535,0.15197,6.48114,0.247,20250410,0430
116,Minsk,,53.9006011,27.558972,11.7,54.0,27.5,577,665,97872.98,2.39765,0.04994,0.0014168366,269.145,235.531,261.145,5.968,0.14499,0.61265,0.60086,0.31514,0.48207,1.21229,1.07107,0.097,20250410,0430
117,Mogadishu,,2.0469343,45.3181623,5.3,2.0,45.312,369,722,100490.47,18.264,2.59384,0.011767934,300.998,268.424,292.998,2.745,0.32441,2.55396,2.10533,0.03771,1.95785,2.27096,0.00078,0.167,20250410,0430
118,Monrovia,,6.3156068,-10.8073698,16.1,6.25,-10.938,386,542,100444.805,18.71619,1.53087,0.012327896,298.073,269.031,290.073,1.123,1.81422,25.08649,10.84539,1.36066,0.7813,2.19753,0.04683,0.441,20250410,0430
119,Monterrey,,25.6866142,-100.3161126,7.1,25.75,-100.312,464,256,95516.7,5.80391,0.56957,0.0035460428,293.483,261.348,285.483,2.541,0.24189,2.63429,2.93221,1.00807,1.69358,0.6501,0.00182,0.11,20250410,0430
120,Montevideo,,-34.9011127,-56.1645314,13.5,-35.0,-56.25,221,397,101566.72,10.3667,0.26706,0.0074812537,290.766,259.909,282.766,4.177,0.14741,0.09509,1.26975,1.57879,0.16708,4.26701,0.00212,0.063,20250410,0430
CC0050109,Montreal,,45.502648,-73.663913,10.1,45.5,-73.438,543,341,102196.89,2.50122,0.08462,0.0015365764,269.685,241.853,261.685,3.876,1.37617,0.85264,4.71164,23.37492,2.29419,0.29212,0.71035,0.102,20250410,0430
122,Moscow,,55.755826,37.6172999,7.4,55.75,37.5,584,697,98066.34,2.36521,0.33268,0.0021769316,267.308,239.839,259.308,2.929,2.33927,1.09179,7.99943,159.06859,10.33897,0.10798,5.03636,0.36,20250410,0430
123,Mostar,,43.3437748,17.8077578,10.4,43.25,17.812,534,634,89240.56,4.13631,0.33283,0.0038617656,274.508,246.315,266.508,0.345,0.25528,0.99032,0.9213,1.98401,1.54253,0.61538,1.41222,0.135,20250410,0430
356DS1010004,Mumbai,U.S. Department of State India - Mumbai,19.07283,72.88261,10.9,19.0,72.812,437,810,100513.7,17.9764,0.12788,0.0044110445,301.924,265.079,293.924,2.903,4.35631,4.57682,9.61026,34.73864,12.21735,2.70397,0.19112,0.661,20250410,0430
124,Munchen,,48.1351253,11.5819805,12.9,48.25,11.562,554,614,96817.8,4.20363,1.01671,0.0034256915,275.208,252.55,267.208,3.722,0.78309,2.10099,4.11115,3.63147,1.58937,0.15573,2.67801,0.175,20250410,0430
125,Muscat,,23.5880307,58.3828717,11.3,23.5,58.438,455,764,100819.0,14.88237,0.53442,0.0035301405,300.145,264.433,292.145,3.345,0.33664,6.77659,1.14273,46.98035,7.91301,1.19232,0.02041,0.216,20250410,0430
126,Nagoya,,35.1814506,136.9065571,8.1,35.25,136.875,502,1015,96493.78,8.61536,1.29456,0.007158257,285.322,253.345,277.322,1.027,1.22545,4.78057,5.912,4.13357,8.06514,2.0568,0.94641,0.865,20250410,0430
127,Naha,,26.2125758,127.6790208,13.9,26.25,127.812,466,986,100912.3,8.52615,3.55244,0.008178085,290.444,263.652,282.444,2.582,0.38484,5.39575,3.07586,0.5498,2.66412,0.63592,0.01492,0.656,20250410,0430
404KE1010001,Nairobi,U.S. Department of State Kenya - Nairobi,-1.23437,36.81732,7.5,-1.25,36.875,356,695,86112.85,14.3702,2.4181,0.014145304,291.471,268.21,283.471,0.662,2.35414,2.90888,10.72186,1.3872,3.61205,1.87147,0.14224,0.18,20250410,0430
129,Naples,,40.8517983,14.26812,14.5,40.75,14.375,524,623,97075.65,4.65241,0.59587,0.0021935822,280.277,249.802,272.277,0.852,1.40113,1.51332,4.61812,2.20828,1.55388,1.15379,0.55285,0.112,20250410,0430
130,Nassau,,25.0443312,-77.3503609,15.9,25.0,-77.5,461,329,101598.89,12.8035,0.04851,0.002355909,296.833,262.784,288.833,4.87,0.21246,1.85586,1.37626,0.40523,3.6888,3.25906,0.01116,0.156,20250410,0430
131,Nay_Pyi_Taw,,19.7633057,96.0785104,14.8,19.75,95.938,440,884,96946.984,11.26091,3.93367,0.00927876,304.848,266.787,296.848,2.571,4.00188,0.67153,66.41643,3.23975,4.00494,0.01419,0.00949,0.58,20250410,0430
148CHD010001,N_Djamena,U.S. Department of State Chad - N'Djamena,12.1348457,15.0557415,14.2,12.25,15.0,410,625,97465.47,3.98716,2.29593,0.003099538,302.595,267.968,294.595,2.589,0.22025,119.68116,1.42085,0.04676,0.34234,0.03745,3e-05,0.609,20250410,0430
356DS1010001,New_Delhi,U.S. Department of State India - New Delhi,28.63576,77.22445,12.8,28.5,77.188,476,824,98040.94,10.41535,3.04726,0.007305325,304.181,262.514,296.181,5.831,4.21326,4.29008,31.91582,13.04793,13.52823,0.08585,0.15917,1.072,20250410,0430
360810120,New_York,,40.7269,-73.8933,6.3,40.75,-74.062,524,341,102294.766,3.68527,0.76626,0.0016107658,276.883,252.334,268.883,2.565,1.34337,0.36711,2.46086,6.20217,0.90029,0.75675,0.47409,0.158,20250410,0430
133,Niamey,,13.5115963,2.1253854,6.8,13.5,2.188,415,584,97958.12,4.96706,0.66667,0.00467608,303.32,269.946,295.32,2.047,0.95229,34.25148,3.891,0.3158,0.36596,0.18732,8e-05,0.332,20250410,0430
134,Nicosia,,35.1855659,33.3822764,8.7,35.25,33.438,502,684,100994.77,6.42434,0.08385,0.004024932,288.829,249.357,280.829,12.376,0.30275,7.15152,1.10834,1.16193,9.54414,2.96994,0.05102,0.299,20250410,0430
800260006,Nogales,,31.291294,-110.951508,5.7,31.25,-110.938,486,222,85388.23,1.67902,0.13549,0.0014324021,294.735,262.888,286.735,1.81,0.12459,2.766,0.83118,0.2314,0.32354,0.167,5e-05,0.061,20250410,0430
136,Nouakchott,,18.0735299,-15.9582372,8.5,18.0,-15.938,433,526,100886.14,11.07954,0.39756,0.0046854396,293.163,265.145,285.163,5.608,0.03786,74.6223,0.21669,0.30313,0.57327,4.58601,0.00103,0.219,20250410,0430
137,Nuevo_Laredo,,27.4779362,-99.549573,13.8,27.5,-99.688,471,258,99732.7,7.39845,0.62942,0.0024817423,294.757,261.455,286.757,3.562,0.3583,2.87031,2.81943,0.54832,1.88457,0.8611,0.00078,0.113,20250410,0430
398KAZ010001,Nur_Sultan,U.S. Department of State Kazakhstan - Nur-Sultan,51.125287,71.467217,11.8,51.25,71.562,566,806,98033.11,6.15138,0.41268,0.004462623,288.329,253.918,280.329,6.364,0.60944,3.36324,5.80582,4.22178,1.97269,0.01798,0.051,0.166,20250410,0430
138,Nuuk,,64.1814099,-51.6941381,9.9,64.25,-51.562,618,412,96800.37,2.31054,0.70319,0.0011400867,268.336,248.074,260.336,1.117,0.09409,1.28082,0.30852,0.00974,1.48204,3.20367,0.0232,0.116,20250410,0430
139,Osaka,,34.6937249,135.5022535,12.8,34.75,135.625,500,1011,98541.78,7.93062,1.44142,0.0068168417,289.481,254.291,281.481,0.468,1.32731,6.00293,5.3372,9.7397,6.43533,0.99633,0.63263,0.649,20250410,0430
140,Oslo,,59.9138688,10.7522454,11.9,60.0,10.625,601,611,97919.05,2.71582,0.11148,0.0031704076,271.421,254.032,263.421,1.242,2.37923,2.47191,12.81632,0.82422,0.6963,0.88645,0.24245,0.115,20250410,0430
60104,Ottawa,,45.434333,-75.67599,10.4,45.5,-75.625,543,335,99687.22,2.3856,0.15935,0.0012658876,269.469,244.92,261.469,2.098,0.80617,1.09687,3.34163,4.4575,1.40837,0.07709,0.5598,0.08,20250410,0430
854BFA010001,Ouagadougou,U.S. Department of State Burkina Faso - Ouagadougou,12.304907,-1.497184,14.3,12.25,-1.562,410,572,97489.7,13.36305,0.44274,0.004219745,302.756,269.652,294.756,4.235,1.21726,26.15865,4.10561,0.89316,0.33934,0.0858,0.00032,0.287,20250410,0430
